iata,icao,name,lat,lon,alt,continent,iso_country
AAH,EDKA,Aachen-Merzbrück Airport,50.823055,6.186389,623,EU,DE
AAL,EKYT,Aalborg Airport,57.09275891,9.849243164,10,EU,DK
AAQ,URKA,Anapa Vityazevo Airport,45.0021019,37.34730148,174,EU,RU
AAR,EKAH,Aarhus Airport,56.29999924,10.61900043,82,EU,DK
ABC,LEAB,Albacete-Los Llanos Airport,38.94850159,-1.863520026,2302,EU,ES
ABZ,EGPD,Aberdeen Dyce Airport,57.20190048,-2.197779894,215,EU,GB
ACE,GCRR,Lanzarote Airport,28.945499,-13.6052,46,EU,ES
ACH,LSZR,St Gallen Altenrhein Airport,47.48500061,9.560770035,1306,EU,CH
ACI,EGJA,Alderney Airport,49.706104,-2.21472,290,EU,GG
ACO,LSZD,Ascona Airport,46.15779877,8.78194046,655,EU,CH
ADX,EGQL,RAF Leuchars,56.3728981,-2.868439913,38,EU,GB
AEI,AEI,Algeciras Heliport,36.12888,-5.441118,98,EU,ES
AEM,UHTG,Amgu Airport,45.84126,137.673568,10,EU,RU
AER,URSS,Sochi International Airport,43.449902,39.9566,89,EU,RU
AES,ENAL,Ålesund Airport,62.5625,6.119699955,69,EU,NO
AEY,BIAR,Akureyri Airport,65.66000366,-18.0727005,6,EU,IS
AGB,EDMA,Augsburg Airport,48.425278,10.931667,1516,EU,DE
AGE,EDWG,Wangerooge Airport,53.78277969,7.913888931,7,EU,DE
AGF,LFBA,Agen-La Garenne Airport,44.17470169,0.590556026,204,EU,FR
AGH,ESTA,Ängelholm-Helsingborg Airport,56.29610062,12.84710026,68,EU,SE
AGP,LEMG,Málaga Airport,36.67490005,-4.499110222,53,EU,ES
AGQ,LGAG,Agrinion Air Base,38.602001,21.3512001,154,EU,GR
AHO,LIEA,Alghero-Fertilia Airport,40.632099,8.29077,87,EU,IT
AHZ,LFHU,Altiport L'Alpe d'Huez - Henri GIRAUD,45.088299,6.08472,6102,EU,FR
AJA,LFKJ,Ajaccio-Napoléon Bonaparte Airport,41.92359924,8.802920341,18,EU,FR
AJR,ESNX,Arvidsjaur Airport,65.59030151,19.28190041,1245,EU,SE
AKT,LCRA,RAF Akrotiri,34.590401,32.9879,76,EU,GB
ALC,LEAL,Alicante International Airport,38.28219986,-0.558156013,142,EU,ES
ALF,ENAT,Alta Airport,69.97609711,23.37170029,9,EU,NO
ALL,LIMG,Villanova D'Albenga International Airport,44.050598,8.12743,148,EU,IT
ALV,AD-ALV,Andorra la Vella (Our Lady of Meritxell Hospital) Heliport,42.511174,1.533551,3450,EU,AD
AMS,EHAM,Amsterdam Airport Schiphol,52.308601,4.76389,-11,EU,NL
ANE,LFJR,Angers-Loire Airport,47.560299,-0.312222,194,EU,FR
ANG,LFBU,Angoulême-Brie-Champniers Airport,45.72919846,0.221456006,436,EU,FR
ANR,EBAW,Antwerp International Airport (Deurne),51.1894,4.46028,39,EU,BE
ANX,ENAN,Andøya Airport,69.29250336,16.14419937,43,EU,NO
AOC,EDAC,Altenburg-Nobitz Airport,50.981945,12.506389,640,EU,DE
AOI,LIPY,Ancona Falconara Airport,43.616299,13.3623,49,EU,IT
AOK,LGKP,Karpathos Airport,35.42139816,27.14599991,66,EU,GR
AOT,LIMW,Aosta Airport,45.738499,7.36872,1791,EU,IT
ARH,ULAA,Talagi Airport,64.60030365,40.71670151,62,EU,RU
ARN,ESSA,Stockholm-Arlanda Airport,59.65190125,17.91860008,137,EU,SE
ARW,LRAR,Arad International Airport,46.17660141,21.26199913,352,EU,RO
ASF,URWA,Astrakhan Airport,46.28329849,48.00630188,-65,EU,RU
ATH,LGAV,Eleftherios Venizelos International Airport,37.93640137,23.94449997,308,EU,GR
AUF,LFLA,Auxerre-Branches Airport,47.85020065,3.49710989,523,EU,FR
AUR,LFLW,Aurillac Airport,44.89139938,2.421940088,2096,EU,FR
AVB,LIPA,Aviano Air Base,46.031898,12.596503,410,EU,IT
AVN,LFMV,Avignon-Caumont Airport,43.90729904,4.901830196,124,EU,FR
AVR,LPAR,Alverca Air Base,38.883301,-9.0301,11,EU,PT
AXD,LGAL,Dimokritos Airport,40.85589981,25.95630074,24,EU,GR
AYH,EGWZ,RAF Alconbury,52.37440109,-0.219722003,157,EU,GB
BAE,LFMR,Barcelonnette - Saint-Pons Airport,44.387198,6.609186,3714,EU,FR
BAY,LRBM,Maramureș International Airport,47.660598,23.467252,605,EU,RO
BBH,EDBH,Barth Airport,54.338253,12.710515,23,EU,DE
BBJ,EDRB,Bitburg Airport,49.945278,6.565,1220,EU,DE
BBP,EGHJ,Bembridge Airport,50.67810059,-1.109439969,53,EU,GB
BBS,EGLK,Blackbushe Airport,51.32389832,-0.847500026,325,EU,GB
BBU,LRBS,Băneasa International Airport,44.50320053,26.10210037,297,EU,RO
BCM,LRBC,Bacău Airport,46.52190018,26.9102993,607,EU,RO
BCN,LEBL,Barcelona International Airport,41.2971,2.07846,12,EU,ES
BCX,UWUB,Beloretsk Airport,53.93809891,58.34000015,1827,EU,RU
BDS,LIBR,Brindisi – Salento Airport,40.6576,17.947001,47,EU,IT
BDU,ENDU,Bardufoss Airport,69.05580139,18.54039955,252,EU,NO
BEB,EGPL,Benbecula Airport,57.48109818,-7.362780094,19,EU,GB
BEG,LYBE,Belgrade Nikola Tesla Airport,44.81840134,20.3090992,335,EU,RS
BEQ,EGXH,RAF Honington,52.34260178,0.772939026,174,EU,GB
BER,EDDB,Berlin Brandenburg Airport,52.351389,13.493889,157,EU,DE
BES,LFRB,Brest Bretagne Airport,48.44789886,-4.418540001,325,EU,FR
BEX,EGUB,RAF Benson,51.61640167,-1.095829964,226,EU,GB
BFE,EDLI,Bielefeld Airport,51.964722,8.544444,454,EU,DE
BFS,EGAA,Belfast International Airport,54.65750122,-6.215829849,268,EU,GB
BGC,LPBG,Bragança Airport,41.8578,-6.70713,2241,EU,PT
BGJ,BIBF,Borgarfjörður eystri Airport,65.5164032,-13.80500031,80,EU,IS
BGN,UESG,Belaya Gora Airport,68.556602,146.231506,118,EU,RU
BGO,ENBR,Bergen Airport Flesland,60.29339981,5.218140125,170,EU,NO
BGY,LIME,Milan Bergamo Airport,45.673901,9.70417,782,EU,IT
BGZ,LPBR,Braga Municipal Aerodrome,41.58710098,-8.445139885,247,EU,PT
BHD,EGAC,George Best Belfast City Airport,54.61809921,-5.872499943,15,EU,GB
BHX,EGBB,Birmingham International Airport,52.45389938,-1.748029947,327,EU,GB
BIA,LFKB,Bastia-Poretta Airport,42.55270004,9.483730316,26,EU,FR
BIO,LEBB,Bilbao Airport,43.30110168,-2.910609961,138,EU,ES
BIQ,LFBZ,Biarritz-Anglet-Bayonne Airport,43.4683333,-1.5311111,245,EU,FR
BIU,BIBD,Bildudalur Airport,65.64129639,-23.5461998,18,EU,IS
BJD,BIBK,Bakkafjörður Airport,66.02189636,-14.82439995,14,EU,IS
BJF,ENBS,Båtsfjord Airport,70.60050201,29.69140053,490,EU,NO
BJY,LYBT,Batajnica Air Base,44.935299,20.2575,265,EU,RS
BJZ,LEBZ,Badajoz Airport,38.8913002,-6.82133007,609,EU,ES
BKA,UUBB,Bykovo Airport,55.61719894,38.06000137,427,EU,RU
BLE,ESSD,Borlange Airport,60.42200089,15.51519966,503,EU,SE
BLK,EGNH,Blackpool International Airport,53.77170181,-3.028609991,34,EU,GB
BLL,EKBI,Billund Airport,55.74029922,9.151780128,247,EU,DK
BLO,BIBL,Hjaltabakki Airport,65.64499664,-20.28750038,131,EU,IS
BLQ,LIPE,Bologna Guglielmo Marconi Airport,44.5354,11.2887,123,EU,IT
BLX,LIDB,Belluno Airport,46.166549,12.250389,1240,EU,IT
BLY,EIBT,Belmullet Aerodrome,54.22280121,-10.03079987,150,EU,IE
BMA,ESSB,Stockholm-Bromma Airport,59.35440063,17.94169998,47,EU,SE
BMK,EDWR,Borkum Airport,53.59639,6.709167,3,EU,DE
BMR,EDWZ,Baltrum Airport,53.72472382,7.373332977,7,EU,DE
BNJ,EDKB,Bonn-Hangelar Airport,50.76889038,7.163332939,197,EU,DE
BNN,ENBN,Brønnøysund Airport,65.46109772,12.21749973,25,EU,NO
BNX,LQBK,Banja Luka International Airport,44.94139862,17.29750061,400,EU,BA
BOD,LFBD,Bordeaux-Mérignac Airport,44.8283,-0.715556,162,EU,FR
BOH,EGHH,Bournemouth Airport,50.77999878,-1.842499971,38,EU,GB
BOJ,LBBG,Burgas Airport,42.56959915,27.51519966,135,EU,BG
BOO,ENBO,Bodø Airport,67.26920319,14.36530018,42,EU,NO
BOR,LFSQ,Aéroparc de Belfort-Fontaine,47.655602,7.01083,1208,EU,FR
BOU,LFLD,Bourges Airport,47.05810165,2.370280027,529,EU,FR
BQD,BIBR,Búðardalur Airport,65.07530212,-21.8003006,131,EU,IS
BQG,UHNB,Bogorodskoye Airport,52.38,140.448,,EU,RU
BQH,EGKB,London Biggin Hill Airport,51.3307991,0.032499999,598,EU,GB
BQT,UMBB,Brest Airport,52.108299,23.8981,468,EU,BY
BRE,EDDW,Bremen Airport,53.04750061,8.786669731,14,EU,DE
BRI,LIBD,Bari Karol Wojtyła Airport,41.138901,16.760599,177,EU,IT
BRN,LSZB,Bern Belp Airport,46.91410065,7.497149944,1674,EU,CH
BRQ,LKTB,Brno-Tuřany Airport,49.15129852,16.69440079,778,EU,CZ
BRR,EGPR,Barra Airport,57.0228,-7.44306,5,EU,GB
BRS,EGGD,Bristol Airport,51.382702,-2.71909,622,EU,GB
BRU,EBBR,Brussels Airport,50.90140152,4.48443985,184,EU,BE
BRV,EDWB,Bremerhaven Airport,53.506943,8.572778,10,EU,DE
BSL,LFSB,EuroAirport Basel-Mulhouse-Freiburg Airport,47.59,7.529167,885,EU,FR
BTS,LZIB,M. R. Štefánik Airport,48.17020035,17.21269989,436,EU,SK
BUD,LHBP,Budapest Liszt Ferenc International Airport,47.42976,19.261093,495,EU,HU
BVA,LFOB,Paris Beauvais Tillé Airport,49.45439911,2.112780094,359,EU,FR
BVE,LFSL,Brive-Souillac,45.039722,1.485556,1016,EU,FR
BVG,ENBV,Berlevåg Airport,70.871399,29.034201,42,EU,NO
BVV,UHSB,Burevestnik Airport,44.919998,147.621994,79,EU,RU
BWE,EDVE,Braunschweig-Wolfsburg Airport,52.319199,10.5561,295,EU,DE
BWF,EGNL,Barrow Walney Island Airport,54.1286111,-3.2675,173,EU,GB
BWK,LDSB,Bol Airport,43.28570175,16.67970085,1776,EU,HR
BWO,UWSB,Balakovo Airport,51.85829926,47.74560165,95,EU,RU
BWY,EGVJ,RAF Bentwaters,52.12749863,1.434720039,85,EU,GB
BXO,LSZC,Buochs Airport,46.974444,8.396944,1475,EU,CH
BXP,EPBP,Biała Podlaska Airfield,52.00078,23.1325278,485,EU,PL
BXV,BIBV,Breiðdalsvík Airport,64.79000092,-14.02280045,8,EU,IS
BYF,LFAQ,Albert-Bray Airport,49.9715004,2.697659969,364,EU,FR
BYJ,LPBJ,Beja Airport / Airbase,38.078899,-7.9324,636,EU,PT
BYR,EKLS,Læsø Airport,57.27719879,11.00010014,25,EU,DK
BYT,EIBN,Bantry Aerodrome,51.66859818,-9.48416996,7,EU,IE
BYU,EDQD,Bayreuth Airport,49.985001,11.64,1601,EU,DE
BZG,EPBY,Bydgoszcz Ignacy Jan Paderewski Airport,53.09680176,17.97769928,235,EU,PL
BZK,UUBP,Bryansk Airport,53.214199,34.176399,663,EU,RU
BZO,LIPB,Bolzano Airport,46.460201,11.3264,789,EU,IT
BZR,LFMU,Béziers-Vias Airport,43.32350159,3.353899956,56,EU,FR
BZY,LUBL,Bălți International Airport,47.843056,27.777222,758,EU,MD
BZZ,EGVN,RAF Brize Norton,51.75,-1.58362,288,EU,GB
CAG,LIEE,Cagliari Elmas Airport,39.251499,9.05428,13,EU,IT
CAL,EGEC,Campbeltown Airport,55.43719864,-5.686389923,42,EU,GB
CAT,LPCS,Cascais Airport,38.724998,-9.35523,325,EU,PT
CAX,EGNC,Carlisle Airport,54.9375,-2.809170008,190,EU,GB
CBG,EGSC,Cambridge Airport,52.205002,0.175,47,EU,GB
CBU,EDCD,Cottbus-Drewitz Airport,51.889442,14.531944,272,EU,DE
CCF,LFMK,Carcassonne Airport,43.2159996,2.306319952,433,EU,FR
CDF,LIDI,Cortina Airport,46.57300186,12.11800003,4213,EU,IT
CDG,LFPG,Charles de Gaulle International Airport,49.012798,2.55,392,EU,FR
CDT,LECH,Castellón-Costa Azahar Airport,40.213889,0.073333,1182,EU,ES
CEE,ULBC,Cherepovets Airport,59.27360153,38.01580048,377,EU,RU
CEG,EGNR,Hawarden Airport,53.17810059,-2.977780104,45,EU,GB
CEJ,UKRR,Chernihiv Shestovitsa Airport,51.40219879,31.1583004,446,EU,UA
CEK,USCC,Chelyabinsk Balandino Airport,55.305801,61.5033,769,EU,RU
CEQ,LFMD,Cannes-Mandelieu Airport,43.542,6.95348,13,EU,FR
CER,LFRC,Cherbourg-Maupertus Airport,49.65010071,-1.470280051,459,EU,FR
CET,LFOU,Cholet Le Pontreau Airport,47.08209991,-0.87706399,443,EU,FR
CFE,LFLC,Clermont-Ferrand Auvergne Airport,45.7867012,3.169169903,1090,EU,FR
CFN,EIDL,Donegal Airport,55.0442009,-8.340999603,30,EU,IE
CFR,LFRK,Caen-Carpiquet Airport,49.1733017,-0.449999988,256,EU,FR
CFU,LGKR,Ioannis Kapodistrias International Airport,39.60189819,19.9116993,6,EU,GR
CGN,EDDK,Cologne Bonn Airport,50.86589813,7.142739773,302,EU,DE
CHQ,LGSA,Chania International Airport,35.53170013,24.14970016,490,EU,GR
CHR,LFLX,"Châteauroux-Déols ""Marcel Dassault"" Airport",46.860278,1.721111,529,EU,FR
CHV,LPCH,Aerodromo de Chaves,41.722356,-7.463064,1181,EU,PT
CIA,LIRA,Ciampino–G. B. Pastine International Airport,41.7994,12.5949,427,EU,IT
CIY,LICB,Comiso Airport,36.994601,14.607182,623,EU,IT
CKC,UKKE,Cherkasy International Airport,49.41559982,31.99530029,375,EU,UA
CKL,UUMU,Chkalovskiy Air Base,55.8783,38.061699,499,EU,RU
CLB,EICB,Castlebar Airport,53.8484,-9.28037,,EU,IE
CLF,EGYC,RAF Coltishall,52.7547,1.35722,66,EU,GB
CLJ,LRCL,Cluj-Napoca International Airport,46.785198,23.686199,1039,EU,RO
CLY,LFKC,Calvi-Sainte-Catherine Airport,42.5244444,8.7930556,209,EU,FR
CMF,LFLB,Chambéry-Savoie Airport,45.63809967,5.88022995,779,EU,FR
CMR,LFGA,Colmar-Houssen Airport,48.10990143,7.35901022,628,EU,FR
CND,LRCK,Mihail Kogălniceanu International Airport,44.36220169,28.48830032,353,EU,RO
CNG,LFBG,Cognac-Châteaubernard (BA 709) Air Base,45.65829849,-0.317499995,102,EU,FR
CNL,EKSN,Sindal Airport,57.503502,10.2294,92,EU,DK
COL,EGEL,Coll Airport,56.60189819,-6.617780209,21,EU,GB
CPH,EKCH,Copenhagen Kastrup Airport,55.61790085,12.65600014,17,EU,DK
CQF,LFAC,Calais-Dunkerque Airport,50.96210098,1.954759955,12,EU,FR
CQM,LERL,Ciudad Real Central Airport,38.85638889,-3.97,,EU,ES
CRA,LRCV,Craiova Airport,44.31809998,23.8885994,626,EU,RO
CRL,EBCI,Brussels South Charleroi Airport,50.459202,4.45382,614,EU,BE
CRV,LIBC,Crotone Airport,38.9972,17.0802,522,EU,IT
CSA,EGEY,Colonsay Airstrip,56.057499,-6.24306,44,EU,GB
CSB,LRCS,Caransebeş Airport,45.41999817,22.25329971,866,EU,RO
CSF,LFPC,Creil Air Base,49.25350189,2.519140005,291,EU,FR
CSH,ULAS,Solovki Airport,65.02999878,35.73333359,60,EU,RU
CSO,EDBC,Cochstedt Airport,51.85639954,11.42029953,594,EU,DE
CSY,UWKS,Cheboksary Airport,56.09030151,47.34730148,558,EU,RU
CTA,LICC,Catania-Fontanarossa Airport,37.466801,15.0664,39,EU,IT
CTT,LFMQ,Le Castellet Airport,43.25249863,5.785190105,1391,EU,FR
CUF,LIMZ,Cuneo International Airport,44.547001,7.62322,1267,EU,IT
CVF,LFLJ,Courchevel Airport,45.396702,6.63472,6583,EU,FR
CVT,EGBE,Coventry Airport,52.36970139,-1.479719996,267,EU,GB
CVU,LPCR,Corvo Airport,39.671501,-31.1136,,EU,PT
CWC,UKLN,Chernivtsi International Airport,48.25930023,25.98080063,826,EU,UA
CWL,EGFF,Cardiff International Airport,51.39670181,-3.343329906,220,EU,GB
CZW,EPCH,Częstochowa-Rudniki,50.884998,19.2047,860,EU,PL
DBV,LDDU,Dubrovnik Airport,42.56140137,18.26819992,527,EU,HR
DCI,LIED,Decimomannu Air Base,39.354198,8.97248,100,EU,IT
DCM,LFCK,Castres-Mazamet Airport,43.55630112,2.28918004,788,EU,FR
DEB,LHDC,Debrecen International Airport,47.48889923,21.61529922,359,EU,HU
DEE,UHSM,Yuzhno-Kurilsk Mendeleyevo Airport,43.958401,145.682999,584,EU,RU
DGP,EVDA,Daugavpils Intrenational Airport,55.94472122,26.66500092,398,EU,LV
DHG,DHG,Dalnegorsk Airport,44.558748,135.490005,833,EU,RU
DHR,EHKD,De Kooy Airport,52.92340088,4.780620098,3,EU,NL
DIJ,LFSD,Dijon-Bourgogne Airport,47.268902,5.09,726,EU,FR
DJU,BIDV,Djúpivogur Airport,64.64420319,-14.28279972,9,EU,IS
DLD,ENDI,Geilo Airport Dagali,60.41730118,8.518349648,2618,EU,NO
DLE,LFGJ,Dole-Tavaux Airport,47.042686,5.435063,645,EU,FR
DLR,DLR,Dalnerechensk Airport,45.8783,133.7363,272,EU,RU
DLR,RU-0493,Dalnerechensk Airport,45.8783,133.7363,272,EU,RU
DME,UUDD,Domodedovo International Airport,55.40879822,37.90629959,588,EU,RU
DND,EGPN,Dundee Airport,56.45249939,-3.02583003,17,EU,GB
DNK,UKDD,Dnipropetrovsk International Airport,48.35720062,35.1006012,481,EU,UA
DNR,LFRD,Dinard-Pleurtuit-Saint-Malo Airport,48.58769989,-2.079960108,219,EU,FR
DOC,GB-DOC,Dornoch Airfield,57.868999,-4.023,1,EU,GB
DOK,UKCC,Donetsk International Airport,48.073601,37.7397,791,EU,UA
DOL,LFRG,Deauville-Saint-Gatien Airport,49.36529922,0.154305995,479,EU,FR
DPE,LFAB,St Aubin Airport,49.88249969,1.085279942,344,EU,FR
DPT,DPT,Deputatskiy Airport,69.392503,139.890012,950,EU,RU
DRS,EDDC,Dresden Airport,51.13280106,13.76720047,755,EU,DE
DSA,EGCN,Robin Hood Doncaster Sheffield Airport,53.48053781,-1.010656357,55,EU,GB
DTM,EDLW,Dortmund Airport,51.5182991,7.612239838,425,EU,DE
DUB,EIDW,Dublin Airport,53.421299,-6.27007,242,EU,IE
DUS,EDDL,Düsseldorf Airport,51.289501,6.76678,147,EU,DE
DYR,UHMA,Ugolny Airport,64.734902,177.740997,194,EU,RU
EAS,LESO,San Sebastian Airport,43.35649872,-1.790609956,16,EU,ES
EBA,LIRJ,Marina Di Campo Airport,42.7603,10.2394,31,EU,IT
EBJ,EKEB,Esbjerg Airport,55.525902,8.5534,97,EU,DK
EBU,LFMH,Saint-Étienne-Bouthéon Airport,45.54059982,4.296390057,1325,EU,FR
ECV,LECU,Cuatro Vientos Airport,40.370701,-3.78514,2269,EU,ES
EDI,EGPH,Edinburgh Airport,55.95000076,-3.372499943,135,EU,GB
EDM,LFRI,La Roche-sur-Yon Airport,46.70190048,-1.378630042,299,EU,FR
EDN,UHWE,Yedinka Airport,47.178201,138.657357,98,EU,RU
EFL,LGKF,Kefallinia Airport,38.12009811,20.50049973,59,EU,GR
EGC,LFBE,Bergerac-Roumanière Airport,44.82529831,0.518611014,171,EU,FR
EGO,UUOB,Belgorod International Airport,50.64379883,36.59009933,735,EU,RU
EGS,BIEG,Egilsstaðir Airport,65.28330231,-14.40139961,76,EU,IS
EIB,EDGE,Eisenach-Kindel Airport,50.991604,10.47973,1112,EU,DE
EIK,URKE,Yeysk Airport,46.68,38.21,60,EU,RU
EIN,EHEH,Eindhoven Airport,51.45009995,5.374529839,74,EU,NL
EKS,UHSK,Shakhtyorsk Airport,49.1903,142.082993,50,EU,RU
EKT,ESSU,Eskilstuna Airport,59.35110092,16.70840073,139,EU,SE
EMA,EGNX,East Midlands Airport,52.83110046,-1.328060031,306,EU,GB
EME,EDWE,Emden Airport,53.391109,7.2275,3,EU,DE
EML,LSME,Emmen Air Base,47.092444,8.305184,1400,EU,CH
ENC,LFSN,Nancy-Essey Airport,48.69210052,6.230460167,751,EU,FR
ENF,EFET,Enontekio Airport,68.36260223,23.42429924,1005,EU,FI
ENK,EGAB,St Angelo Airport,54.39889908,-7.651669979,155,EU,GB
ENS,EHTW,Twente Airport,52.275833,6.889167,114,EU,NL
EOI,EGED,Eday Airport,59.19060135,-2.772219896,10,EU,GB
EPL,LFSG,Épinal-Mirecourt Airport,48.325001,6.06998,1084,EU,FR
EPU,EEPU,Pärnu Airport,58.41899872,24.4727993,47,EU,EE
ERD,UKDB,Berdyansk Airport,46.814999,36.758099,171,EU,UA
ERF,EDDE,Erfurt Airport,50.97980118,10.95810032,1036,EU,DE
ESH,EGKA,Shoreham Airport,50.835602,-0.297222,7,EU,GB
ESL,URWI,Elista Airport,46.37390137,44.33089828,501,EU,RU
ESS,EDLE,Essen Mulheim Airport,51.40230179,6.937329769,424,EU,DE
ETL,UHTQ,Svetlaya Airport,46.541704,138.321703,131,EU,RU
ETZ,LFJL,Metz-Nancy-Lorraine Airport,48.98210144,6.251319885,870,EU,FR
EUM,EDHN,Neumünster Airport,54.07944489,9.941389084,72,EU,DE
EVE,ENEV,"Harstad/Narvik Airport, Evenes",68.49130249,16.67810059,84,EU,NO
EVG,ESND,Sveg Airport,62.04779816,14.4229002,1178,EU,SE
EVX,LFOE,Évreux-Fauville (BA 105) Air Base,49.02870178,1.219859958,464,EU,FR
EWY,EWY,RAF Greenham Common,51.379,-1.281,400,EU,GB
EXT,EGTE,Exeter International Airport,50.7344017,-3.413889885,102,EU,GB
EYK,USHY,Beloyarskiy Airport,63.686901,66.698601,82,EU,RU
FAB,EGLF,Farnborough Airport,51.2757988,-0.776332974,238,EU,GB
FAE,EKVG,Vágar Airport,62.063599,-7.27722,280,EU,FO
FAG,BIFM,Fagurhólsmýri Airport,63.87469864,-16.64109993,56,EU,IS
FAN,ENLI,Lista Airport,58.09949875,6.626049995,29,EU,NO
FAO,LPFR,Faro Airport,37.01440048,-7.965909958,24,EU,PT
FAS,BIFF,Fáskrúðsfjörður Airport,64.93170166,-14.06060028,15,EU,IS
FBU,ENFB,"Oslo, Fornebu Airport",59.89580154,10.6171999,,EU,NO
FCN,ETMN,Nordholz Naval Airbase,53.7677002,8.658499718,74,EU,DE
FCO,LIRF,Leonardo da Vinci–Fiumicino Airport,41.8002778,12.2388889,13,EU,IT
FDE,ENBL,Førde Airport,61.39110184,5.756939888,1046,EU,NO
FDH,EDNY,Friedrichshafen Airport,47.67129898,9.511489868,1367,EU,DE
FEA,FEA,Fetlar Airport,60.60333333,-0.872777778,263,EU,GB
FEL,ETSF,Fürstenfeldbruck Air Base,48.205555,11.266944,1703,EU,DE
FFD,EGVA,RAF Fairford,51.68220139,-1.790030003,286,EU,GB
FIE,EGEF,Fair Isle Airport,59.53580093,-1.628059983,223,EU,GB
FKB,EDSB,Karlsruhe Baden-Baden Airport,48.77939987,8.080499649,408,EU,DE
FLF,EDXF,Flensburg-Schäferhaus Airport,54.7733345,9.378889084,131,EU,DE
FLH,GB-FLH,Flotta Isle Airport,58.82580185,-3.142780066,50,EU,GB
FLI,BIHT,Holt Airport,66.01418043,-23.4416914,10,EU,IS
FLR,LIRQ,Peretola Airport,43.810001,11.2051,142,EU,IT
FLW,LPFL,Flores Airport,39.45529938,-31.13139915,112,EU,PT
FMM,EDJA,Memmingen Allgau Airport,47.98880005,10.23950005,2077,EU,DE
FMO,EDDG,Münster Osnabrück Airport,52.13460159,7.684830189,160,EU,DE
FNB,EDBN,Neubrandenburg Airport,53.6022,13.306,228,EU,DE
FNC,LPMA,Madeira Airport,32.697899,-16.7745,192,EU,PT
FNI,LFTW,Nîmes-Arles-Camargue Airport,43.75740051,4.416349888,309,EU,FR
FNU,LIER,Oristano-Fenosu Airport,39.895308,8.642661,36,EU,IT
FOA,GB-FOA,Foula Airfield,60.121725,-2.053202,150,EU,GB
FOG,LIBF,"Foggia ""Gino Lisa"" Airport",41.432899,15.535,265,EU,IT
FRA,EDDF,Frankfurt am Main Airport,50.033333,8.570556,364,EU,DE
FRJ,LFTU,Fréjus Airport,43.4175,6.7357,33,EU,FR
FRL,LIPK,Forlì Airport,44.194801,12.0701,97,EU,IT
FRO,ENFL,Florø Airport,61.58359909,5.024720192,37,EU,NO
FRZ,ETHF,Fritzlar Army Airfield,51.1146,9.286,1345,EU,DE
FSC,LFKF,Figari Sud-Corse Airport,41.500599,9.09778,85,EU,FR
FSS,EGQK,RAF Kinloss,57.6493988,-3.560640097,22,EU,GB
FUE,GCFV,Fuerteventura Airport,28.45269966,-13.86380005,85,EU,ES
FZO,EGTG,Bristol Filton Airport,51.51940155,-2.590830088,226,EU,GB
GAT,LFNA,Gap - Tallard Airfield,44.455002,6.03778,1986,EU,FR
GBA,EGBP,Cotswold Airport,51.668095,-2.05694,433,EU,GB
GCI,EGJB,Guernsey Airport,49.43500137,-2.601969957,336,EU,GG
GDG,UHBI,Magdagachi Airport,53.473301,125.794998,1211,EU,RU
GDN,EPGD,Gdańsk Lech Wałęsa Airport,54.37760162,18.46619987,489,EU,PL
GDZ,URKG,Gelendzhik Airport,44.58209263,38.01248074,98,EU,RU
GEV,ESNG,Gällivare Airport,67.13240051,20.81459999,1027,EU,SE
GFR,LFRF,Granville Airport,48.8830986,-1.564170003,45,EU,FR
GHF,EDQG,Giebelstadt Airport,49.64805603,9.966388702,981,EU,DE
GIB,LXGB,Gibraltar Airport,36.15119934,-5.34965992,15,EU,GI
GJR,BIGJ,Gjögur Airport,65.99530029,-21.32690048,83,EU,IS
GKE,ETNG,Geilenkirchen Air Base,50.9608,6.04242,296,EU,DE
GLA,EGPF,Glasgow International Airport,55.871899,-4.43306,26,EU,GB
GLL,ENKL,Gol Airport,60.791066,9.048672,2770,EU,NO
GLO,EGBJ,Gloucestershire Airport,51.89419937,-2.167220116,101,EU,GB
GLZ,EHGR,Gilze Rijen Air Base,51.56740189,4.931829929,49,EU,NL
GME,UMGG,Gomel Airport,52.52700043,31.01670074,472,EU,BY
GML,UKKM,Gostomel Airport,50.60350037,30.19190025,517,EU,UA
GMZ,GCGM,La Gomera Airport,28.02960014,-17.21459961,716,EU,ES
GNA,UMMG,Hrodna Airport,53.60200119,24.05380058,443,EU,BY
GNB,LFLS,Grenoble-Isère Airport,45.3629,5.32937,1302,EU,FR
GNE,GNE,Sint-Denijs-Westrem Airport,51.025956,3.688231,30,EU,BE
GOA,LIMJ,Genoa Cristoforo Colombo Airport,44.4133,8.8375,13,EU,IT
GOJ,UWGG,Nizhny Novgorod Strigino International Airport,56.23009872,43.7840004,256,EU,RU
GOT,ESGG,Gothenburg-Landvetter Airport,57.66279984,12.27980042,506,EU,SE
GOZ,LBGO,Gorna Oryahovitsa Airport,43.15140152,25.71290016,285,EU,BG
GPA,LGRX,Araxos Airport,38.1511,21.4256,46,EU,GR
GRO,LEGE,Girona Airport,41.90100098,2.760550022,468,EU,ES
GRQ,EHGG,Eelde Airport,53.11970139,6.579440117,17,EU,NL
GRS,LIRS,Grosseto Air Base,42.759701,11.0719,17,EU,IT
GRV,RU-0035,Grozny North Airport,43.388302,45.698601,548,EU,RU
GRW,LPGR,Graciosa Airport,39.09220123,-28.02980042,86,EU,PT
GRX,LEGR,Federico Garcia Lorca Airport,37.18870163,-3.777359962,1860,EU,ES
GRY,BIGR,Grímsey Airport,66.5458,-18.0173,66,EU,IS
GRZ,LOWG,Graz Airport,46.99110031,15.43959999,1115,EU,AT
GSE,ESGP,Gothenburg City Airport,57.7747,11.8704,59,EU,SE
GSY,EGXB,Binbrook Airfield,53.44670105,-0.209999993,,EU,GB
GTI,EDCG,Flugplatz Güttin / Rügen,54.383331,13.325556,69,EU,DE
GTW,LKHO,Holešov Airport,49.3143997,17.5688992,761,EU,CZ
GUT,ETUO,Gütersloh Air Base,51.922798,8.30633,236,EU,DE
GUU,BIGF,Grundarfjörður Airport,64.99140167,-23.22470093,17,EU,IS
GVA,LSGG,Geneva Cointrin International Airport,46.23809814,6.108950138,1411,EU,CH
GVX,ESSK,Gävle Sandviken Airport,60.59329987,16.95140076,224,EU,SE
GWT,EDXW,Westerland Sylt Airport,54.91320038,8.340470314,51,EU,DE
GWW,GWW,Gatow Airport,52.47439957,13.13809967,161,EU,DE
GWY,EICM,Galway Airport,53.30020142,-8.941590309,81,EU,IE
GYG,UEMM,Magan Airport,62.103484,129.545288,577,EU,RU
GZM,LMMG,Xewkija Heliport,36.027199,14.2728,,EU,MT
HAA,ENHK,Hasvik Airport,70.48670197,22.13969994,21,EU,NO
HAD,ESMT,Halmstad Airport,56.69110107,12.82019997,101,EU,SE
HAJ,EDDV,Hannover Airport,52.46110153,9.685079575,183,EU,DE
HAM,EDDH,Hamburg Airport,53.63040161,9.988229752,53,EU,DE
HAU,ENHD,Haugesund Airport,59.34529877,5.208360195,86,EU,NO
HAW,EGFE,Haverfordwest Airport,51.83309937,-4.961110115,159,EU,GB
HDB,DE-0419,Heidelberg Army Helicopter Base,49.392397,8.651935,,EU,DE
HDF,EDAH,Heringsdorf Airport,53.87870026,14.15229988,93,EU,DE
HEI,EDXB,Heide-Büsum Airport,54.15333176,8.901666641,7,EU,DE
HEL,EFHK,Helsinki Vantaa Airport,60.3172,24.963301,179,EU,FI
HEM,EFHF,Helsinki Malmi Airport,60.254601,25.042801,57,EU,FI
HER,LGIR,Heraklion International Nikos Kazantzakis Airport,35.33969879,25.18029976,115,EU,GR
HEW,LGAT,Athen Helenikon Airport,37.893299,23.726101,69,EU,GR
HFN,BIHN,Hornafjörður Airport,64.295601,-15.2272,24,EU,IS
HFS,ESOH,Hagfors Airport,60.02009964,13.57890034,474,EU,SE
HFT,ENHF,Hammerfest Airport,70.67970276,23.66860008,266,EU,NO
HGL,EDXH,Helgoland-Düne Airport,54.18527985,7.915832996,8,EU,DE
HHN,EDFH,Frankfurt-Hahn Airport,49.9487,7.26389,1649,EU,DE
HKV,BG-HKV,Malevo Airport,41.87179947,25.60479927,600,EU,BG
HLF,ESSF,Hultsfred Airport,57.525799,15.8233,366,EU,SE
HLO,BIID,Ingjaldssanður Airport,66.05000305,-23.69610023,70,EU,IS
HMJ,UKLH,Khmelnytskyi Airport,49.359699,26.933399,1150,EU,UA
HMR,ENHA,Stafsberg Airport,60.81809998,11.06799984,713,EU,NO
HMV,ESUT,Hemavan Airport,65.806099,15.0828,1503,EU,SE
HOH,LOIH,Hohenems-Dornbirn Airfield,47.384998,9.7,1352,EU,AT
HOQ,EDQM,Hof-Plauen Airport,50.28861237,11.85638905,1959,EU,DE
HOR,LPHR,Horta Airport,38.51990128,-28.71590042,118,EU,PT
HOV,ENOV,"Ørsta-Volda Airport, Hovden",62.18000031,6.074100018,243,EU,NO
HOY,GB-0070,Hoy/Longhope Airfield,58.791779,-3.216076,30,EU,GB
HRK,UKHH,Kharkiv International Airport,49.92480087,36.29000092,508,EU,UA
HRT,EGXU,RAF Linton-On-Ouse,54.0489006,-1.252750039,53,EU,GB
HSK,LEHC,Huesca/Pirineos Airport,42.076099,-0.316667,1769,EU,ES
HTA,UIAA,Chita-Kadala Airport,52.026299,113.306,2272,EU,RU
HUV,ESNH,Hudiksvall Airport,61.76810074,17.08069992,95,EU,SE
HUY,EGNJ,Humberside Airport,53.57440186,-0.350832999,121,EU,GB
HVG,ENHV,Valan Airport,71.00969696,25.98360062,44,EU,NO
HVK,BIHK,Hólmavík Airport,65.70469666,-21.69639969,90,EU,IS
HVM,BIHV,Krókstaðarmelar Airport,65.2664032,-20.84690094,164,EU,IS
HYC,EGTB,Wycombe Air Park,51.61169815,-0.80833298,515,EU,GB
HYV,EFHV,Hyvinkää Airfield,60.6544,24.8811,430,EU,FI
HZB,LFQT,Merville-Calonne Airport,50.61840057,2.642240047,61,EU,FR
HZK,BIHU,Húsavík Airport,65.952301,-17.426001,48,EU,IS
IAR,UUDL,Tunoshna Airport,57.56069946,40.15739822,287,EU,RU
IAS,LRIA,Iaşi Airport,47.17850113,27.62059975,397,EU,RO
IBZ,LEIB,Ibiza Airport,38.8728981,1.37311995,24,EU,ES
IDB,ESUE,Idre Airport,61.86970139,12.68939972,,EU,SE
IDY,LFEY,Île d'Yeu Airport,46.71860123,-2.391109943,79,EU,FR
IEG,EPZG,Zielona Góra-Babimost Airport,52.13850021,15.7986002,194,EU,PL
IES,EDAU,Riesa-Göhlis Airport,51.29360962,13.35611057,322,EU,DE
IEV,UKKK,Kiev Zhuliany International Airport,50.40194,30.45194,587,EU,UA
IFJ,BIIS,Ísafjörður Airport,66.05809784,-23.13529968,8,EU,IS
IFO,UKLI,Ivano-Frankivsk International Airport,48.88420105,24.68610001,919,EU,UA
IGS,ETSI,Ingolstadt Manching Airport,48.71569824,11.5340004,1202,EU,DE
IGT,URMS,Magas Airport,43.32229996,45.01259995,1165,EU,RU
IIA,EIMN,Inishmaan Aerodrome,53.0929985,-9.568059921,15,EU,IE
IJK,USII,Izhevsk Airport,56.8280983,53.45750046,531,EU,RU
ILD,LEDA,Lleida-Alguaire Airport,41.728185,0.535023,1152,EU,ES
ILH,ETIK,Illesheim Air Base,49.47389984,10.38809967,1079,EU,DE
ILY,EGPI,Islay Airport,55.68190002,-6.256669998,56,EU,GB
ILZ,LZZI,Žilina Airport,49.23149872,18.6135006,1020,EU,SK
INI,LYNI,Nis Airport,43.337299,21.853701,648,EU,RS
INN,LOWI,Innsbruck Airport,47.260201,11.344,1907,EU,AT
INQ,EIIR,Inisheer Aerodrome,53.06470108,-9.510899544,40,EU,IE
INV,EGPE,Inverness Airport,57.54249954,-4.047500134,31,EU,GB
IOA,LGIO,Ioannina Airport,39.69639969,20.82250023,1558,EU,GR
IOM,EGNS,Isle of Man Airport,54.08330154,-4.623889923,52,EU,IM
IOR,EIIM,Inishmore Aerodrome,53.1067009,-9.653610229,24,EU,IE
ISC,EGHE,St. Mary's Airport,49.91329956,-6.291669846,116,EU,GB
ITU,UHSI,Iturup Airport,45.256389,147.95549,387,EU,RU
IVG,LYBR,Berane Airport,42.8390007,19.86199951,2287,EU,ME
IVL,EFIV,Ivalo Airport,68.6072998,27.40530014,481,EU,FI
IWA,UUBI,Ivanovo South Airport,56.93939972,40.94079971,410,EU,RU
JAM,BG-JAM,Bezmer Air Base,42.45489883,26.35219955,509,EU,BG
JCA,FR-JCA,Croisette Heliport,43.5359993,7.037360191,,EU,FR
JCU,GECE,Ceuta Heliport,35.89279938,-5.306389809,8,EU,ES
JDP,LFPI,Paris Issy-les-Moulineaux Heliport,48.83330154,2.272779942,112,EU,FR
JER,EGJJ,Jersey Airport,49.207901,-2.195509911,277,EU,JE
JIK,LGIK,Ikaria Airport,37.68270111,26.3470993,79,EU,GR
JKG,ESGJ,Jönköping Airport,57.75759888,14.06869984,741,EU,SE
JKH,LGHI,Chios Island National Airport,38.34320068,26.1406002,15,EU,GR
JKL,LGKY,Kalymnos Airport,36.9632988,26.94059944,771,EU,GR
JMK,LGMK,Mikonos Airport,37.43510056,25.34810066,405,EU,GR
JNX,LGNX,Naxos Airport,37.08110046,25.36809921,10,EU,GR
JOE,EFJO,Joensuu Airport,62.662899,29.6075,398,EU,FI
JOK,UWKJ,Yoshkar-Ola Airport,56.70059967,47.90470123,348,EU,RU
JSH,LGST,Sitia Airport,35.21609879,26.10129929,376,EU,GR
JSI,LGSK,Skiathos Island National Airport,39.17710114,23.50370026,54,EU,GR
JSY,LGSO,Syros Airport,37.42279816,24.95089912,236,EU,GR
JTR,LGSR,Santorini Airport,36.39920044,25.47929955,127,EU,GR
JTY,LGPL,Astypalaia Airport,36.57989883,26.37579918,165,EU,GR
JUI,EDWJ,Juist Airport,53.68111038,7.055832863,7,EU,DE
JYV,EFJY,Jyväskylä Airport,62.399502,25.678301,459,EU,FI
KAJ,EFKI,Kajaani Airport,64.2855,27.6924,483,EU,FI
KAO,EFKS,Kuusamo Airport,65.987602,29.239401,866,EU,FI
KAU,EFKA,Kauhava Airfield,63.127102,23.051399,151,EU,FI
KBP,UKBB,Boryspil International Airport,50.34500122,30.8946991,427,EU,UA
KDL,EEKA,Kärdla Airport,58.99079895,22.83069992,18,EU,EE
KDY,RU-0200,Typliy Klyuch Airport,62.78900146,136.8549957,925,EU,RU
KEF,BIKF,Keflavik International Airport,63.985001,-22.6056,171,EU,IS
KEL,EDHK,Kiel-Holtenau Airport,54.37944412,10.14527798,102,EU,DE
KEM,EFKE,Kemi-Tornio Airport,65.77870178,24.58209991,61,EU,FI
KEV,EFHA,Halli Airport,61.856039,24.786686,479,EU,FI
KGD,UMKK,Khrabrovo Airport,54.88999939,20.59259987,42,EU,RU
KGO,UKKG,Kirovograd Airport,48.5428009,32.28499985,568,EU,UA
KGS,LGKO,Kos Airport,36.79330063,27.0916996,412,EU,GR
KHC,UKFK,Kerch Airport,45.37250137,36.40140152,171,EU,UA
KHE,UKOH,Kherson International Airport,46.6758,32.506401,148,EU,UA
KHJ,EFKJ,Kauhajoki Airfield,62.462502,22.393101,407,EU,FI
KHU,UA-0050,Kakhnovka Airfield,49.1342,33.4766,266,EU,UA
KID,ESMK,Kristianstad Airport,55.92169952,14.08549976,76,EU,SE
KIR,EIKY,Kerry Airport,52.18090057,-9.523779869,112,EU,IE
KIT,LGKC,Kithira Airport,36.27429962,23.0170002,1045,EU,GR
KIV,LUKK,Chişinău International Airport,46.92770004,28.93099976,399,EU,MD
KJA,UNKL,Yemelyanovo Airport,56.172901,92.493301,942,EU,RU
KJK,EBKT,Wevelgem Airport,50.8172,3.20472,55,EU,BE
KKN,ENKR,Kirkenes Airport (Høybuktmoen),69.72579956,29.8913002,283,EU,NO
KKQ,USDP,Krasnoselkup Airport,65.717,82.455,101,EU,RU
KKY,EIKK,Kilkenny Airport,52.6507988,-7.296110153,319,EU,IE
KLD,UUEM,Migalovo Air Base,56.8246994,35.75770187,469,EU,RU
KLF,UUBC,Grabtsevo Airport,54.54999924,36.3666687,656,EU,RU
KLR,ESMQ,Kalmar Airport,56.6855011,16.28759956,17,EU,SE
KLU,LOWK,Klagenfurt Airport,46.642502,14.3377,1472,EU,AT
KLV,LKKV,Karlovy Vary International Airport,50.20299911,12.91499996,1989,EU,CZ
KLX,LGKL,Kalamata Airport,37.06829834,22.02549934,26,EU,GR
KMW,UUBA,Kostroma Sokerkino Airport,57.7969017,41.01940155,446,EU,RU
KNF,EGYM,RAF Marham,52.648395,0.550692,75,EU,GB
KOI,EGPA,Kirkwall Airport,58.95780182,-2.904999971,50,EU,GB
KOK,EFKK,Kokkola-Pietarsaari Airport,63.721199,23.143101,84,EU,FI
KOQ,EDCK,Köthen Airport,51.7211113,11.95277786,305,EU,DE
KPW,UHMK,Keperveem Airport,67.845001,166.139999,623,EU,RU
KRF,ESNK,Kramfors Sollefteå Airport,63.04859924,17.76889992,34,EU,SE
KRH,EGKR,Redhill Aerodrome,51.21360016,-0.138611004,222,EU,GB
KRK,EPKK,Kraków John Paul II International Airport,50.077702,19.7848,791,EU,PL
KRN,ESNQ,Kiruna Airport,67.8219986,20.33679962,1508,EU,SE
KRP,EKKA,Karup Airport,56.29750061,9.124629974,170,EU,DK
KRQ,UKCK,Kramatorsk Airport,48.70560074,37.62889862,646,EU,UA
KRR,URKK,Krasnodar Pashkovsky International Airport,45.03469849,39.17050171,118,EU,RU
KRS,ENCN,Kristiansand Airport,58.204201,8.08537,57,EU,NO
KSC,LZKZ,Košice Airport,48.6631012,21.24110031,755,EU,SK
KSD,ESOK,Karlstad Airport,59.44469833,13.33740044,352,EU,SE
KSF,EDVK,Kassel-Calden Airport,51.417273,9.384967,820,EU,DE
KSJ,LGKS,Kasos Airport,35.42139816,26.90999985,35,EU,GR
KSK,ESKK,Karlskoga Airport,59.34590149,14.49590015,400,EU,SE
KSO,LGKA,Kastoria National Airport,40.44630051,21.28219986,2167,EU,GR
KSU,ENKB,Kristiansund Airport (Kvernberget),63.11180115,7.824520111,204,EU,NO
KSZ,ULKK,Kotlas Airport,61.2358017,46.69749832,184,EU,RU
KTQ,EFIT,Kitee Airport,62.1661,30.073601,364,EU,FI
KTT,EFKT,Kittilä Airport,67.7009964,24.84679985,644,EU,FI
KTW,EPKT,Katowice International Airport,50.4743,19.08,995,EU,PL
KUF,UWWW,Kurumoch International Airport,53.50490189,50.16429901,477,EU,RU
KUN,EYKA,Kaunas International Airport,54.96390152,24.08480072,256,EU,LT
KUO,EFKU,Kuopio Airport,63.007099,27.7978,323,EU,FI
KVA,LGKV,Alexander the Great International Airport,40.91329956,24.61919975,18,EU,GR
KVB,ESGR,Skövde Airport,58.45640182,13.97270012,324,EU,SE
KVK,ULMK,Kirovsk-Apatity Airport,67.46330261,33.5882988,515,EU,RU
KVM,UHMO,Markovo Airport,64.667,170.417007,,EU,RU
KVO,LYKV,Morava Airport,43.818298,20.5872,686,EU,RS
KVR,UHWK,Kavalerovo Airport,44.2726,135.029,730,EU,RU
KVX,USKK,Pobedilovo Airport,58.50329971,49.34830093,479,EU,RU
KWG,UKDR,Kryvyi Rih International Airport,48.04330063,33.20999908,408,EU,UA
KZG,ETIN,Flugplatz Kitzingen,49.743099,10.2006,689,EU,DE
KZI,LGKZ,Filippos Airport,40.28609848,21.84079933,2059,EU,GR
KZN,UWKD,Kazan International Airport,55.60620117,49.27870178,411,EU,RU
KZS,LGKJ,Kastelorizo Airport,36.14170074,29.57640076,489,EU,GR
LAI,LFRO,Lannion-Côte de Granit Airport,48.754398,-3.47166,290,EU,FR
LBA,EGNM,Leeds Bradford Airport,53.86589813,-1.660570025,681,EU,GB
LBC,EDHL,Lübeck Blankensee Airport,53.80540085,10.71920013,53,EU,DE
LBG,LFPB,Paris-Le Bourget Airport,48.9693985,2.441390038,218,EU,FR
LBI,LFCI,Albi-Le Séquestre Airport,43.91389847,2.113059998,564,EU,FR
LBY,LFRE,La Baule-Escoublac Airport,47.28939819,-2.346390009,105,EU,FR
LCC,LIBN,Lecce Galatina Air Base,40.239201,18.133301,156,EU,IT
LCG,LECO,A Coruña Airport,43.302101,-8.37726,326,EU,ES
LCJ,EPLL,Łódź Władysław Reymont Airport,51.72190094,19.3980999,604,EU,PL
LCV,LIQL,Lucca-Tassignano Airport,43.825825,10.577928,39,EU,IT
LCY,EGLC,London City Airport,51.505299,0.055278,19,EU,GB
LDE,LFBT,Tarbes-Lourdes-Pyrénées Airport,43.17869949,-0.006439,1260,EU,FR
LDG,ULAL,Leshukonskoye Airport,64.89600372,45.72299957,220,EU,RU
LDK,ESGL,Lidköping-Hovby Airport,58.4655,13.1744,200,EU,SE
LDV,LFRJ,Landivisiau Air Base,48.53030014,-4.151639938,348,EU,FR
LDY,EGAE,City of Derry Airport,55.0428009,-7.161109924,22,EU,GB
LED,ULLI,Pulkovo Airport,59.8003006,30.26250076,78,EU,RU
LEH,LFOH,Le Havre Octeville Airport,49.53390121,0.088055998,313,EU,FR
LEI,LEAM,Almería International Airport,36.84389877,-2.370100021,70,EU,ES
LEJ,EDDP,Leipzig/Halle Airport,51.423889,12.236389,465,EU,DE
LEN,LELN,Leon Airport,42.5890007,-5.655560017,3006,EU,ES
LEQ,EGHC,Land's End Airport,50.102798,-5.67056,398,EU,GB
LEU,LESU,Pirineus - la Seu d'Urgel Airport,42.3386,1.40917,2625,EU,ES
LEY,EHLE,Lelystad Airport,52.4603,5.52722,-13,EU,NL
LGG,EBLG,Liège Airport,50.63740158,5.443220139,659,EU,BE
LGO,EDWL,Langeoog Airport,53.74250031,7.497777939,7,EU,DE
LGW,EGKK,London Gatwick Airport,51.148102,-0.190278,202,EU,GB
LHA,EDTL,Lahr Airport,48.36930084,7.827720165,511,EU,DE
LHR,EGLL,London Heathrow Airport,51.4706,-0.461941,83,EU,GB
LID,EHVB,Valkenburg Naval Air Base,52.16609955,4.41794014,1,EU,NL
LIG,LFBL,Limoges Airport,45.8628006,1.179440022,1300,EU,FR
LIL,LFQQ,Lille-Lesquin Airport,50.563332,3.086886,157,EU,FR
LIN,LIML,Milano Linate Airport,45.445099,9.27674,353,EU,IT
LIS,LPPT,Humberto Delgado Airport (Lisbon Portela Airport),38.7813,-9.13592,374,EU,PT
LJU,LJLJ,Ljubljana Jože Pučnik Airport,46.223701,14.4576,1273,EU,SI
LKL,ENNA,Banak Airport,70.06880188,24.9734993,25,EU,NO
LKN,ENLK,Leknes Airport,68.15249634,13.6093998,78,EU,NO
LKZ,EGUL,RAF Lakenheath,52.40930176,0.56099999,32,EU,GB
LLA,ESPA,Luleå Airport,65.54380035,22.12199974,65,EU,SE
LME,LFRM,Le Mans-Arnage Airport,47.94860077,0.201666996,194,EU,FR
LMO,EGQS,RAF Lossiemouth,57.7052002,-3.339169979,42,EU,GB
LMP,LICD,Lampedusa Airport,35.497898,12.6181,70,EU,IT
LNX,XUBS,Smolensk North Airport,54.824,32.025,820,EU,RU
LNZ,LOWL,Linz Hörsching Airport,48.2332,14.1875,980,EU,AT
LPA,GCLP,Gran Canaria Airport,27.93190002,-15.38659954,78,EU,ES
LPI,ESSL,Linköping City Airport,58.40620041,15.68050003,172,EU,SE
LPK,UUOL,Lipetsk Airport,52.70280075,39.53779984,584,EU,RU
LPL,EGGP,Liverpool John Lennon Airport,53.33359909,-2.849720001,80,EU,GB
LPP,EFLP,Lappeenranta Airport,61.044601,28.144743,349,EU,FI
LPX,EVLA,Liepāja International Airport,56.51750183,21.09690094,16,EU,LV
LPY,LFHP,Le Puy-Loudes Airport,45.08069992,3.7628901,2731,EU,FR
LRA,LGLR,Larisa Air Base,39.650253,22.4655,241,EU,GR
LRH,LFBH,La Rochelle-Île de Ré Airport,46.17919922,-1.195279956,74,EU,FR
LRS,LGLE,Leros Airport,37.184898,26.800301,39,EU,GR
LRT,LFRH,Lorient South Brittany (Bretagne Sud) Airport,47.76060104,-3.440000057,160,EU,FR
LSI,EGPB,Sumburgh Airport,59.87889862,-1.295560002,20,EU,GB
LSO,LFOO,Les Sables-d'Olonne Talmont Airport,46.47689819,-1.722779989,105,EU,FR
LSZ,LDLO,Lošinj Island Airport,44.56579971,14.39309978,151,EU,HR
LTN,EGGW,London Luton Airport,51.87469864,-0.368333012,526,EU,GB
LTQ,LFAT,Le Touquet-Côte d'Opale Airport,50.51739883,1.620589972,36,EU,FR
LTR,EILT,Letterkenny Airfield,54.951302,-7.67283,20,EU,IE
LTT,LFTZ,La Môle Airport,43.205399,6.482,59,EU,FR
LUE,LZLU,Lučenec Airport,48.33940125,19.73579979,,EU,SK
LUG,LSZA,Lugano Airport,46.00429916,8.910579681,915,EU,CH
LUX,ELLX,Luxembourg-Findel International Airport,49.6233333,6.2044444,1234,EU,LU
LUZ,LUZ,Lublin Airport,51.240278,22.713611,633,EU,PL
LVA,LFOV,Laval-Entrammes Airport,48.03139877,-0.742986023,330,EU,FR
LWK,EGET,Lerwick / Tingwall Airport,60.19219971,-1.243610024,43,EU,GB
LWO,UKLL,Lviv International Airport,49.8125,23.95610046,1071,EU,UA
LWR,EHLW,Leeuwarden Air Base,53.22859955,5.760560036,3,EU,NL
LXS,LGLM,Limnos Airport,39.917099,25.23629951,14,EU,GR
LYC,ESNL,Lycksele Airport,64.5483017,18.71619987,705,EU,SE
LYE,EGDL,RAF Lyneham,51.5051,-1.99343,513,EU,GB
LYM,EGMK,Lympne Airport,51.08,1.013,351,EU,GB
LYN,LFLY,Lyon-Bron Airport,45.72719955,4.944270134,659,EU,FR
LYR,ENSB,"Svalbard Airport, Longyear",78.24610138,15.46560001,88,EU,NO
LYS,LFLL,Lyon Saint-Exupéry Airport,45.725556,5.081111,821,EU,FR
LYX,EGMD,Lydd Airport,50.95610046,0.939167023,13,EU,GB
MAD,LEMD,Adolfo Suárez Madrid–Barajas Airport,40.471926,-3.56264,1998,EU,ES
MAH,LEMH,Menorca Airport,39.86259842,4.218649864,302,EU,ES
MAN,EGCC,Manchester Airport,53.35369873,-2.274950027,257,EU,GB
MBX,LJMB,Maribor Airport,46.47990036,15.68610001,876,EU,SI
MCM,LNMC,Monaco Heliport,43.725601,7.41917,20,EU,MC
MCQ,LHMC,Miskolc Airport,48.13690186,20.79140091,390,EU,HU
MCU,LFBK,Montluçon-Guéret Airport,46.22259903,2.363960028,1497,EU,FR
MCX,URML,Uytash Airport,42.81679916,47.65230179,12,EU,RU
MEH,ENMH,Mehamn Airport,71.02970123,27.82670021,39,EU,NO
MEN,LFNB,Mende-Brenoux Airfield,44.502102,3.53282,3362,EU,FR
MFX,LFKX,Méribel Altiport,45.407003,6.577942,5636,EU,FR
MGL,EDLN,Mönchengladbach Airport,51.230278,6.504444,125,EU,DE
MHG,EDFM,Mannheim-City Airport,49.473057,8.514167,308,EU,DE
MHP,UMMM,Minsk 1 Airport,53.864498,27.5397,748,EU,BY
MHQ,EFMA,Mariehamn Airport,60.12220001,19.89819908,17,EU,FI
MHZ,EGUN,RAF Mildenhall,52.36190033,0.486405998,33,EU,GB
MIK,EFMI,Mikkeli Airport,61.6866,27.201799,329,EU,FI
MJF,ENMS,Mosjøen Airport (Kjærstad),65.78399658,13.21490002,237,EU,NO
MJT,LGMT,Mytilene International Airport,39.05670166,26.59830093,60,EU,GR
MJV,LELC,San Javier Airport,37.77500153,-0.812389016,11,EU,ES
MKA,LKMR,Mariánské Lázně Airport,49.92279816,12.72469997,1772,EU,CZ
MLA,LMML,Malta International Airport,35.857498,14.4775,300,EU,MT
MLN,GEML,Melilla Airport,35.27980042,-2.956259966,156,EU,ES
MLO,LGML,Milos Airport,36.696899,24.4769,10,EU,GR
MME,EGNV,Durham Tees Valley Airport,54.50920105,-1.429409981,120,EU,GB
MMK,ULMM,Murmansk Airport,68.78170013,32.75080109,266,EU,RU
MMX,ESMS,Malmö Sturup Airport,55.53630536,13.37619781,236,EU,SE
MOL,ENML,Molde Airport,62.74470139,7.262499809,10,EU,NO
MPL,LFMT,Montpellier-Méditerranée Airport,43.57619858,3.963010073,17,EU,FR
MPW,UKCM,Mariupol International Airport,47.0760994,37.44960022,251,EU,UA
MQF,USCM,Magnitogorsk International Airport,53.39310074,58.75569916,1430,EU,RU
MQJ,UEMA,Moma Airport,66.450861,143.261551,656,EU,RU
MQN,ENRA,"Mo i Rana Airport, Røssvoll",66.36389923,14.30140018,229,EU,NO
MRS,LFML,Marseille Provence Airport,43.43927192,5.221424103,74,EU,FR
MRV,URMM,Mineralnyye Vody Airport,44.22510147,43.08190155,1054,EU,RU
MRW,EKMB,Lolland Falster Maribo Airport,54.699299,11.4401,16,EU,DK
MSE,EGMH,Kent International Airport,51.342201,1.34611,178,EU,GB
MSQ,UMMS,Minsk National Airport,53.88249969,28.03070068,670,EU,BY
MST,EHBK,Maastricht Aachen Airport,50.911701,5.77014,375,EU,NL
MUC,EDDM,Munich Airport,48.353802,11.7861,1487,EU,DE
MUC,XMUC,Flughafen München-Riem,48.13779831,11.69029999,,EU,DE
MVA,BIRL,Reykjahlíð Airport,65.65579987,-16.91810036,1030,EU,IS
MVQ,UMOO,Mogilev Airport,53.95489883,30.0951004,637,EU,BY
MVV,LFHM,Megève Altiport,45.823005,6.649406,4823,EU,FR
MXN,LFRU,Morlaix-Ploujean Airport,48.60319901,-3.815779924,272,EU,FR
MXP,LIMC,Malpensa International Airport,45.6306,8.72811,768,EU,IT
MXR,UA-0049,Myrhorod Air Base,49.932,33.641,400,EU,UA
MXX,ESKM,Mora Airport,60.957901,14.5114,634,EU,SE
MZM,LFSF,Metz-Frescaty (BA 128) Air Base,49.071701,6.13167,629,EU,FR
NAL,URMN,Nalchik Airport,43.51290131,43.63660049,1461,EU,RU
NAP,LIRN,Naples International Airport,40.886002,14.2908,294,EU,IT
NBC,UWKE,Begishevo Airport,55.56470108,52.09249878,643,EU,RU
NCE,LFMN,Nice-Côte d'Azur Airport,43.65840149,7.215869904,12,EU,FR
NCL,EGNT,Newcastle Airport,55.03749847,-1.691669941,266,EU,GB
NCY,LFLP,Annecy-Haute-Savoie-Mont Blanc Airport,45.9308333,6.1063889,1521,EU,FR
NDY,EGES,Sanday Airport,59.25030136,-2.576669931,68,EU,GB
NEF,UWUF,Neftekamsk Airport,56.10689926,54.34719849,456,EU,RU
NEI,UHWT,Terney Airport,45.0825,136.5912,33,EU,RU
NGK,RU-0025,Nogliki Airport,51.780102,143.139008,109,EU,RU
NHT,EGWU,RAF Northolt,51.5530014,-0.418166995,124,EU,GB
NIT,LFBN,Niort-Souché Airport,46.313477,-0.394529,203,EU,FR
NLI,UHNN,Nikolayevsk-na-Amure Airport,53.154999,140.649994,170,EU,RU
NLV,UKON,Mykolaiv International Airport,47.05789948,31.9197998,184,EU,UA
NNM,ULAM,Naryan Mar Airport,67.63999939,53.12189865,36,EU,RU
NNR,EICA,Connemara Regional Airport,53.2303009,-9.467780113,70,EU,IE
NOC,EIKN,Ireland West Knock Airport,53.91030121,-8.818490028,665,EU,IE
NOD,EDWS,Norden-Norddeich Airport,53.63305664,7.190278053,3,EU,DE
NOR,BINF,Norðfjörður Airport,65.13189697,-13.74639988,13,EU,IS
NOZ,UNWW,Spichenkovo Airport,53.811401,86.877197,1024,EU,RU
NQT,EGBN,Nottingham Airport,52.91999817,-1.079169989,138,EU,GB
NQY,EGHQ,Newquay Cornwall Airport,50.44060135,-4.995409966,390,EU,GB
NRD,EDWY,Norderney Airport,53.706944,7.23,7,EU,DE
NRK,ESSP,Norrköping Airport,58.5862999,16.25060081,32,EU,SE
NRL,EGEN,North Ronaldsay Airport,59.36750031,-2.434439898,40,EU,GB
NRN,EDLV,Weeze Airport,51.60240173,6.142169952,106,EU,DE
NSY,LICZ,Sigonella Navy Air Base,37.401699,14.9224,79,EU,IT
NTB,ENNO,Notodden Airport,59.565701,9.21222,63,EU,NO
NTE,LFRS,Nantes Atlantique Airport,47.15319824,-1.610730052,90,EU,FR
NUE,EDDN,Nuremberg Airport,49.498699,11.078056,1046,EU,DE
NVK,ENNK,Narvik Framnes Airport,68.436897,17.3867,95,EU,NO
NVR,ULNN,Novgorod Airport,58.49330139,31.24169922,85,EU,RU
NVS,LFQG,Nevers-Fourchambault Airport,47.00260162,3.113329887,602,EU,FR
NWI,EGSH,Norwich International Airport,52.67580032,1.282780051,117,EU,GB
NYA,USHN,Nyagan Airport,62.110001,65.614998,361,EU,RU
NYO,ESKN,Stockholm Skavsta Airport,58.78860092,16.91220093,140,EU,SE
NYR,UENN,Nyurba Airport,63.294998,118.336998,394,EU,RU
OBF,EDMO,Oberpfaffenhofen Airport,48.081402,11.2831,1947,EU,DE
OBN,EGEO,Oban Airport,56.46350098,-5.399670124,20,EU,GB
OBS,LFHO,Aubenas-Ardèche Méridional Airport,44.544203,4.372192,923,EU,FR
ODB,LEBA,Córdoba Airport,37.84199905,-4.848879814,297,EU,ES
ODE,EKOD,Odense Airport,55.47669983,10.33090019,56,EU,DK
ODH,EGVO,RAF Odiham,51.23410034,-0.942825019,405,EU,GB
ODS,UKOO,Odessa International Airport,46.42679977,30.67650032,172,EU,UA
OEL,UUOR,Oryol Yuzhny Airport,52.93470001,36.00220108,656,EU,RU
OER,ESNO,Örnsköldsvik Airport,63.40829849,18.98999977,354,EU,SE
OFJ,BIOF,Ólafsfjörður Airport,66.08329773,-18.66670036,32,EU,IS
OGZ,URMO,Beslan Airport,43.20510101,44.60660172,1673,EU,RU
OHD,LWOH,Ohrid St. Paul the Apostle Airport,41.18,20.7423,2313,EU,MK
OHR,EDXY,Wyk auf Föhr Airport,54.68444443,8.52833271,26,EU,DE
OKH,EGXJ,RAF Cottesmore,52.735699,-0.648769,461,EU,GB
OKT,UWUK,Oktyabrskiy Airport,54.43999863,53.38830185,377,EU,RU
OLA,ENOL,Ørland Airport,63.69889832,9.604000092,28,EU,NO
OLB,LIEO,Olbia Costa Smeralda Airport,40.898701,9.51763,37,EU,IT
OLI,BIRF,Rif Airport,64.91139984,-23.82309914,18,EU,IS
OLO,LKOL,Olomouc Airport,49.587799,17.2108,869,EU,CZ
OLZ,UEMO,Olyokminsk Airport,60.397499,120.471001,656,EU,RU
OMO,LQMO,Mostar International Airport,43.28290176,17.84589958,156,EU,BA
OMR,LROD,Oradea International Airport,47.02529907,21.90250015,465,EU,RO
ONK,UERO,Olenyok Airport,68.514999,112.480003,847,EU,RU
OPA,BIKP,Kópasker Airport,66.31079865,-16.4666996,20,EU,IS
OPO,LPPR,Francisco de Sá Carneiro Airport,41.24810028,-8.681389809,228,EU,PT
ORB,ESOE,Örebro Airport,59.22370148,15.03800011,188,EU,SE
ORE,LFOZ,Orléans – Saint-Denis-de-l'Hôtel Airport,47.8969,2.16333,396,EU,FR
ORK,EICK,Cork Airport,51.84130096,-8.491109848,502,EU,IE
ORM,EGBK,Sywell Aerodrome,52.30530167,-0.793056011,429,EU,GB
ORY,LFPO,Paris-Orly Airport,48.7233333,2.3794444,291,EU,FR
OSD,ESNZ,Åre Östersund Airport,63.19440079,14.50030041,1233,EU,SE
OSF,UUMO,Ostafyevo International Airport,55.511667,37.507222,568,EU,RU
OSI,LDOS,Osijek Airport,45.46269989,18.81019974,290,EU,HR
OSK,ESMO,Oskarshamn Airport,57.350498,16.497999,96,EU,SE
OSL,ENGM,Oslo Gardermoen Airport,60.19390106,11.10039997,681,EU,NO
OSP,EPSK,Redzikowo Air Base,54.47890091,17.10750008,217,EU,PL
OSR,LKMT,Ostrava Leos Janáček Airport,49.69630051,18.11109924,844,EU,CZ
OST,EBOS,Ostend-Bruges International Airport,51.19889832,2.862220049,13,EU,BE
OSW,UWOR,Orsk Airport,51.07249832,58.59560013,909,EU,RU
OSY,ENNM,Namsos Høknesøra Airport,64.47219849,11.57859993,7,EU,NO
OSZ,EPKO,Koszalin Zegrze Pomorskie,54.0425,16.2656,249,EU,PL
OTP,LROP,Henri Coandă International Airport,44.5711111,26.085,314,EU,RO
OUK,GB-OUK,Outer Skerries Airport,60.4252,-0.75,76,EU,GB
OUL,EFOU,Oulu Airport,64.930099,25.354601,47,EU,FI
OVD,LEAS,Asturias Airport,43.56359863,-6.034619808,416,EU,ES
OXF,EGTK,Oxford (Kidlington) Airport,51.8368988,-1.320000052,270,EU,GB
OZH,UKDE,Zaporizhzhia International Airport,47.86700058,35.31570053,373,EU,UA
OZP,LEMO,Moron Air Base,37.17490005,-5.615940094,285,EU,ES
PAD,EDLP,Paderborn Lippstadt Airport,51.61410141,8.616319656,699,EU,DE
PAS,LGPA,Paros National Airport,37.020495,25.113195,131,EU,GR
PDL,LPPD,João Paulo II Airport,37.74119949,-25.69790077,259,EU,PT
PDV,LBPD,Plovdiv International Airport,42.067799,24.8508,597,EU,BG
PED,LKPD,Pardubice Airport,50.01340103,15.73859978,741,EU,CZ
PEE,USPP,Bolshoye Savino Airport,57.91450119,56.02119827,404,EU,RU
PEF,EDCP,Peenemünde Airport,54.15777969,13.77444363,7,EU,DE
PEG,LIRZ,Perugia San Francesco d'Assisi – Umbria International Airport,43.095901,12.5132,697,EU,IT
PES,ULPB,Petrozavodsk Airport,61.8852005,34.15470123,151,EU,RU
PEV,LHPP,Pécs-Pogány Airport,45.990898,18.240996,1000,EU,HU
PEX,UUYP,Pechora Airport,65.12110138,57.13079834,98,EU,RU
PEZ,UWPP,Penza Airport,53.11059952,45.02109909,614,EU,RU
PFJ,BIPA,Patreksfjörður Airport,65.555801,-23.965,11,EU,IS
PGF,LFMP,Perpignan-Rivesaltes (Llabanère) Airport,42.74039841,2.87067008,144,EU,FR
PGX,LFBX,Périgueux-Bassillac Airport,45.19810104,0.81555599,328,EU,FR
PHM,DE-0428,Böblingen Flugfeld,48.689544,8.996193,,EU,DE
PHM,DE-0429,Böblingen Flugfeld,48.689544,8.996193,,EU,DE
PIK,EGPK,Glasgow Prestwick Airport,55.50939941,-4.586669922,65,EU,GB
PIS,LFBI,Poitiers-Biard Airport,46.58769989,0.306665987,423,EU,FR
PIX,LPPI,Pico Airport,38.554298,-28.441299,109,EU,PT
PJA,ESUP,Pajala Airport,67.24559784,23.06889915,542,EU,SE
PKH,LGHL,Porto Cheli Airport,37.29891,23.148923,69,EU,GR
PKV,ULOO,Pskov Airport,57.78390121,28.39559937,154,EU,RU
PLH,EGHD,Plymouth City Airport,50.422798,-4.10583,476,EU,GB
PLQ,EYPA,Palanga International Airport,55.97320175,21.09390068,33,EU,LT
PLV,UKHP,Suprunovka Airport,49.5685997,34.39720154,505,EU,UA
PME,EGVF,Fleetlands Heliport,50.83530045,-1.169170022,3,EU,GB
PMF,LIMP,Parma Airport,44.824501,10.2964,161,EU,IT
PMI,LEPA,Palma De Mallorca Airport,39.55170059,2.738810062,27,EU,ES
PMO,LICJ,Falcone–Borsellino Airport,38.175999,13.091,65,EU,IT
PNA,LEPP,Pamplona Airport,42.77000046,-1.646329999,1504,EU,ES
PNL,LICG,Pantelleria Airport,36.816502,11.9689,628,EU,IT
PNV,EYPP,Panevėžys Air Base,55.72940063,24.46080017,197,EU,LT
POR,EFPO,Pori Airport,61.4617,21.799999,44,EU,FI
POV,LZPW,Prešov Air Base,49.02970123,21.31559944,1060,EU,SK
POW,LJPZ,Portoroz Airport,45.47340012,13.61499977,7,EU,SI
POX,LFPT,Aérodrome de Pontoise - Cormeilles en Vexin,49.096667,2.040833,325,EU,FR
POZ,EPPO,Poznań-Ławica Airport,52.42100143,16.82629967,308,EU,PL
PPW,EGEP,Papa Westray Airport,59.35169983,-2.900279999,91,EU,GB
PRG,LKPR,Václav Havel Airport Prague,50.1008,14.26,1247,EU,CZ
PRM,LPPM,Portimão Airport,37.1493,-8.58396,5,EU,PT
PRN,BKPR,Priština International Airport,42.5728,21.035801,1789,EU,XK
PRP,LFKO,Propriano Airport,41.66059875,8.889749527,13,EU,FR
PRV,LKPO,Přerov Air Base,49.42580032,17.40469933,676,EU,CZ
PSA,LIRP,Pisa International Airport,43.683899,10.3927,6,EU,IT
PSH,EDXO,St. Peter-Ording Airport,54.30888748,8.686944008,7,EU,DE
PSL,EGPT,Perth/Scone Airport,56.43920135,-3.372220039,397,EU,GB
PSR,LIBP,Pescara International Airport,42.431702,14.1811,48,EU,IT
PSV,GB-PSV,Papa Stour Airport,60.321701,-1.69306,,EU,GB
PUF,LFBP,Pau Pyrénées Airport,43.38000107,-0.41861099,616,EU,FR
PUY,LDPL,Pula Airport,44.89350128,13.9222002,274,EU,HR
PVK,LGPZ,Aktion National Airport,38.92549896,20.76530075,11,EU,GR
PVS,UHMD,Provideniya Bay Airport,64.37809753,-173.2429962,72,EU,RU
PXO,LPPS,Porto Santo Airport,33.07339859,-16.35000038,341,EU,PT
PYR,LGAD,Andravida Air Base,37.9207,21.292601,55,EU,GR
PZE,EGHK,Penzance Heliport,50.128101,-5.51845,14,EU,GB
PZY,LZPP,Piešťany Airport,48.62519836,17.82839966,545,EU,SK
QAQ,LIAP,L'Aquila–Preturo Airport,42.379902,13.3092,2211,EU,IT
QCY,EGXC,RAF Coningsby,53.0929985,-0.166014001,25,EU,GB
QEO,EPKW,Bielsko-Bialo Kaniow Airfield,49.93999863,19.02199936,1316,EU,PL
QHU,EDXJ,Husum-Schwesing Airport,54.50999832,9.138333321,62,EU,DE
QKX,ENKA,Kautokeino Air Base,69.04029846,23.0340004,1165,EU,NO
QLF,EFLA,Lahti Vesivehmaa Airport,61.144199,25.693501,502,EU,FI
QLP,LIQW,Sarzana-Luni Air Base,44.088001,9.98795,45,EU,IT
QLR,LPMR,Monte Real Air Base,39.828335,-8.8875,187,EU,PT
QLT,LIRL,Latina Air Base,41.5424,12.909,94,EU,IT
QNC,LSGN,Neuchatel Airport,46.95750046,6.864719868,1427,EU,CH
QND,LYNS,Cenej Airport,45.385799,19.839199,266,EU,RS
QNJ,LFLI,Annemasse Airport,46.19200134,6.268390179,1620,EU,FR
QPA,LIPU,Padova Airport,45.395802,11.8479,44,EU,IT
QRT,LIQN,Rieti Airport,42.4272,12.8517,1278,EU,IT
QSA,LELL,Sabadell Airport,41.52090073,2.105079889,485,EU,ES
QSR,LIRI,Salerno Costa d'Amalfi Airport,40.620399,14.9113,119,EU,IT
QUG,EGHR,Goodwood Aerodrome,50.859402,-0.759167,98,EU,GB
QUY,EGUY,RAF Wyton,52.35720062,-0.107832998,135,EU,GB
QYD,EPOK,Oksywie Military Air Base,54.57970047,18.51720047,144,EU,PL
RAN,LIDR,Ravenna Airport,44.36391,12.224978,1,EU,IT
RBM,EDMS,Straubing Airport,48.90083313,12.51666737,1047,EU,DE
RCO,LFDN,Rochefort-Saint-Agnant (BA 721) Airport,45.88779831,-0.983056009,60,EU,FR
RCS,EGTO,Rochester Airport,51.35189819,0.503332973,436,EU,GB
RDO,EPRA,Radom Airport,51.3891983,21.21330071,610,EU,PL
RDZ,LFCR,Rodez-Marcillac Airport,44.40790176,2.482670069,1910,EU,FR
REB,EDAX,Rechlin-Lärz Airport,53.30638886,12.75222206,220,EU,DE
REG,LICR,Reggio Calabria Airport,38.071201,15.6516,96,EU,IT
REN,UWOO,Orenburg Central Airport,51.79579926,55.45669937,387,EU,RU
RET,ENRS,Røst Airport,67.52780151,12.10330009,7,EU,NO
REU,LERS,Reus Air Base,41.1473999,1.167170048,233,EU,ES
RFN,BIRG,Raufarhöfn Airport,66.40640259,-15.91829967,39,EU,IS
RGS,LEBG,Burgos Airport,42.357601,-3.62076,2945,EU,ES
RHA,BIRE,Reykhólar Airport,65.45262909,-22.20611572,60,EU,IS
RHE,LFSR,Reims-Champagne (BA 112) Air Base,49.310001,4.05,312,EU,FR
RHO,LGRP,Diagoras Airport,36.40539932,28.08620071,17,EU,GR
RIX,EVRA,Riga International Airport,56.92359924,23.97109985,36,EU,LV
RJK,LDRI,Rijeka Airport,45.21689987,14.5703001,278,EU,HR
RJL,LELO,Logroño-Agoncillo Airport,42.46095349,-2.322235107,1161,EU,ES
RKE,EKRK,Copenhagen Roskilde Airport,55.58560181,12.13140011,146,EU,DK
RKV,BIRK,Reykjavik Airport,64.12999725,-21.94059944,48,EU,IS
RLG,ETNL,Rostock-Laage Airport,53.91820145,12.27830029,138,EU,DE
RMI,LIPR,Federico Fellini International Airport,44.020302,12.6117,40,EU,IT
RMS,ETAR,Ramstein Air Base,49.43690109,7.600279808,776,EU,DE
RMU,RMU,Región de Murcia International Airport,37.803,-1.125,644,EU,ES
RNB,ESDF,Ronneby Airport,56.26670074,15.26500034,191,EU,SE
RNE,LFLO,Roanne-Renaison Airport,46.05830002,4.00138998,1106,EU,FR
RNN,EKRN,Bornholm Airport,55.06330109,14.75959969,52,EU,DK
RNS,LFRN,Rennes-Saint-Jacques Airport,48.0695,-1.73479,124,EU,FR
ROU,LBRS,Ruse Airport,43.69480133,26.05669975,614,EU,BG
ROV,URRP,Platov International Airport,47.493888,39.924722,213,EU,RU
ROZ,LERT,Rota Naval Station Airport,36.64519882,-6.349460125,86,EU,ES
RRS,ENRO,Røros Airport,62.57839966,11.34230042,2054,EU,NO
RTM,EHRD,Rotterdam The Hague Airport,51.956902,4.43722,-15,EU,NL
RTW,UWSS,Saratov Central Airport,51.56499863,46.04669952,499,EU,RU
RVH,ULSS,Rzhevka Airport,59.97999954,30.5855999,56,EU,RU
RVI,URRR,Rostov-on-Don Airport,47.258203,39.8181,280,EU,RU
RVK,ENRM,"Rørvik Airport, Ryum",64.83830261,11.14610004,14,EU,NO
RVN,EFRO,Rovaniemi Airport,66.56479645,25.83040047,642,EU,FI
RWN,UKLR,Rivne International Airport,50.60710144,26.14159966,755,EU,UA
RYB,UUBK,Staroselye Airport,58.10419846,38.9294014,423,EU,RU
RYG,ENRY,"Moss Airport, Rygge",59.378817,10.785439,174,EU,NO
RYN,LFCY,Royan-Médis Airport,45.62810135,-0.972500026,72,EU,FR
RZE,EPRZ,Rzeszów-Jasionka Airport,50.110001,22.018999,693,EU,PL
RZH,UIKP,Preobrazheniye Airport,42.921698,133.904438,34,EU,RU
RZN,UUWR,Turlatovo Airport,54.55590057,39.85520172,502,EU,RU
SAK,BIKR,Sauðárkrókur Airport,65.73169708,-19.57279968,8,EU,IS
SAY,LIQS,Siena-Ampugnano Airport,43.256302,11.255,634,EU,IT
SBK,LFRT,Saint-Brieuc-Armor Airport,48.5378,-2.85444,453,EU,FR
SBT,USDA,Sabetta International Airport,71.219167,72.052222,46,EU,RU
SBZ,LRSB,Sibiu International Airport,45.78559875,24.09129906,1496,EU,RO
SCN,EDDR,Saarbrücken Airport,49.21459961,7.109509945,1058,EU,DE
SCP,LFNC,Mont-Dauphin - St-Crépin Airport,44.701698,6.60028,2963,EU,FR
SCQ,LEST,Santiago de Compostela Airport,42.89630127,-8.415140152,1213,EU,ES
SCR,SE-0016,Scandinavian Mountains Airport,61.158393,12.842503,1608,EU,SE
SCS,EGPM,Scatsta Airport,60.43280029,-1.296110034,81,EU,GB
SCV,LRSV,Suceava Stefan cel Mare Airport,47.6875,26.35409927,1375,EU,RO
SCW,UUYY,Syktyvkar Airport,61.64699936,50.8451004,342,EU,RU
SDL,ESNN,Sundsvall-Härnösand Airport,62.52809906,17.44389915,16,EU,SE
SDN,ENSD,Sandane Airport (Anda),61.83000183,6.105830193,196,EU,NO
SDR,LEXJ,Santander Airport,43.42710114,-3.820009947,16,EU,ES
SEK,UESK,Srednekolymsk Airport,67.4805,153.7364,60,EU,RU
SEN,EGMC,Southend Airport,51.57139969,0.695555985,49,EU,GB
SEV,UKCS,Sievierodonetsk Airport,48.9003301,38.54166985,236,EU,UA
SEX,ETAS,Sembach Air Base,49.507,7.866,1050,EU,DE
SFT,ESNS,Skellefteå Airport,64.62480164,21.07690048,157,EU,SE
SGD,EKSB,Sønderborg Airport,54.96440125,9.791729927,24,EU,DK
SGE,EDGS,Siegerland Airport,50.70769882,8.082969666,1966,EU,DE
SIE,LPSI,Sines Airport,37.941692,-8.817301,,EU,PT
SIJ,BISI,Siglufjörður Airport,66.133301,-18.9167,10,EU,IS
SIP,UKFF,Simferopol International Airport,45.0522,33.975101,639,EU,UA
SIR,LSGS,Sion Airport,46.219166,7.326944,1582,EU,CH
SJJ,LQSA,Sarajevo International Airport,43.82460022,18.3314991,1708,EU,BA
SJY,EFSI,Seinäjoki Airport,62.692101,22.8323,302,EU,FI
SJZ,LPSJ,São Jorge Airport,38.665501,-28.1758,311,EU,PT
SKE,ENSN,Skien Airport,59.18500137,9.566940308,463,EU,NO
SKG,LGTS,Thessaloniki Macedonia International Airport,40.5196991,22.97089958,22,EU,GR
SKN,ENSK,Stokmarknes Skagen Airport,68.5788269,15.03341675,11,EU,NO
SKP,LWSK,Skopje International Airport,41.961601,21.621401,781,EU,MK
SKS,EKSP,Skrydstrup Air Base,55.221048,9.26702,141,EU,DK
SKU,LGSY,Skiros Airport,38.96760178,24.48719978,44,EU,GR
SKX,UWPS,Saransk Airport,54.1251297,45.21225739,676,EU,RU
SLD,LZSL,Sliač Airport,48.63779831,19.13409996,1043,EU,SK
SLM,LESA,Salamanca Airport,40.95209885,-5.501989841,2595,EU,ES
SLS,LBSS,Silistra Polkovnik Lambrinovo Air Base,44.055199,27.178801,351,EU,BG
SMA,LPAZ,Santa Maria Airport,36.97140121,-25.17060089,308,EU,PT
SMI,LGSM,Samos Airport,37.68999863,26.9116993,19,EU,GR
SMV,LSZS,Samedan Airport,46.53409958,9.884110451,5600,EU,CH
SNN,EINN,Shannon Airport,52.702,-8.92482,46,EU,IE
SNR,LFRZ,Saint-Nazaire-Montoir Airport,47.3105556,-2.1566667,13,EU,FR
SOB,LHSM,Hévíz–Balaton Airport,46.686391,17.159084,408,EU,HU
SOF,LBSF,Sofia Airport,42.69669342,23.41143608,1742,EU,BG
SOG,ENSG,Sogndal Airport,61.156101,7.13778,1633,EU,NO
SOJ,ENSR,Sørkjosen Airport,69.78679657,20.95940018,16,EU,NO
SOO,ESNY,Söderhamn Airport,61.26150131,17.09910011,88,EU,SE
SOT,EFSO,Sodankyla Airport,67.39499664,26.61910057,602,EU,FI
SOU,EGHI,Southampton Airport,50.95029831,-1.35679996,44,EU,GB
SOY,EGER,Stronsay Airport,59.15530014,-2.641390085,39,EU,GB
SOZ,LFKS,Solenzara (BA 126) Air Base,41.92440033,9.406000137,28,EU,FR
SPC,GCLA,La Palma Airport,28.626499,-17.7556,107,EU,ES
SPJ,LGSP,Sparti Airport,36.97389984,22.52630043,500,EU,GR
SPM,ETAD,Spangdahlem Air Base,49.97269821,6.692500114,1197,EU,DE
SPU,LDSP,Split Airport,43.53889847,16.29800034,79,EU,HR
SQO,ESUD,Storuman Airport,64.96089935,17.69659996,915,EU,SE
SQQ,EYSA,Šiauliai International Airport,55.89390182,23.39500046,443,EU,LT
SQW,EKSV,Skive Airport,56.55020142,9.172980309,74,EU,DK
SQZ,EGXP,RAF Scampton,53.30780029,-0.550832987,202,EU,GB
SRP,ENSO,Stord Airport,59.79190063,5.340849876,160,EU,NO
SSJ,ENST,Sandnessjøen Airport (Stokka),65.95680237,12.46889973,56,EU,NO
STA,EKVJ,Stauning Airport,55.99010086,8.353910446,17,EU,DK
STN,EGSS,London Stansted Airport,51.88499832,0.234999999,348,EU,GB
STR,EDDS,Stuttgart Airport,48.68989944,9.221960068,1276,EU,DE
STW,URMT,Stavropol Shpakovskoye Airport,45.10919952,42.1128006,1486,EU,RU
SUF,LICA,Lamezia Terme Airport,38.905399,16.2423,39,EU,IT
SUJ,LRSM,Satu Mare Airport,47.70330048,22.88570023,405,EU,RO
SUK,UEBS,Sakkyryr Airport,67.792,130.394,1686,EU,RU
SVG,ENZV,Stavanger Airport Sola,58.87670135,5.63778019,29,EU,NO
SVJ,ENSH,Svolvær Helle Airport,68.24330139,14.66919994,27,EU,NO
SVL,EFSA,Savonlinna Airport,61.9431,28.945101,311,EU,FI
SVO,UUEE,Sheremetyevo International Airport,55.972599,37.4146,622,EU,RU
SVQ,LEZL,Sevilla Airport,37.41799927,-5.893109798,112,EU,ES
SWS,EGFH,Swansea Airport,51.6053009,-4.067830086,299,EU,GB
SWV,UHMW,Severo-Evensk Airport,61.921665,159.229996,,EU,RU
SXB,LFST,Strasbourg Airport,48.53829956,7.628230095,505,EU,FR
SXL,EISG,Sligo Airport,54.28020096,-8.599209785,11,EU,IE
SYK,BIST,Stykkishólmur Airport,65.05809784,-22.7942009,42,EU,IS
SYS,UERS,Saskylakh Airport,71.92790222,114.0800018,,EU,RU
SYT,LFLN,Saint-Yan Airport,46.41249847,4.013259888,796,EU,FR
SYY,EGPO,Stornoway Airport,58.21559906,-6.331110001,26,EU,GB
SZG,LOWS,Salzburg Airport,47.79330063,13.00430012,1411,EU,AT
SZR,LBSZ,Stara Zagora Airport,42.3766667,25.655,558,EU,BG
SZW,EDOP,Schwerin Parchim Airport,53.426998,11.7834,166,EU,DE
SZY,EPSY,Olsztyn-Mazury Airport,53.481899,20.9377,463,EU,PL
SZZ,EPSC,"Szczecin-Goleniów ""Solidarność"" Airport",53.58470154,14.90219975,154,EU,PL
TAR,LIBG,"Taranto-Grottaglie ""Marcello Arlotta"" Airport",40.517502,17.4032,215,EU,IT
TAT,LZTT,Poprad-Tatry Airport,49.07360077,20.24110031,2356,EU,SK
TAY,EETU,Tartu Airport,58.30749893,26.69039917,219,EU,EE
TBW,UUOT,Donskoye Airport,52.80609894,41.48279953,413,EU,RU
TCE,LRTC,Tulcea Airport,45.0625,28.71430016,200,EU,RO
TED,EKTS,Thisted Airport,57.06880188,8.705220222,23,EU,DK
TEQ,LTBU,Tekirdağ Çorlu Airport,41.13819885,27.91909981,574,EU,TR
TER,LPLA,Lajes Airport,38.761799,-27.090799,180,EU,PT
TEV,LETL,Teruel Airport,40.403,-1.2183,3380,EU,ES
TEY,BITE,Þingeyri Airport,65.87030029,-23.55999947,65,EU,IS
TFN,GCXO,Tenerife Norte Airport,28.48270035,-16.34149933,2076,EU,ES
TFS,GCTS,Tenerife South Airport,28.04450035,-16.57250023,209,EU,ES
TGD,LYPG,Podgorica Airport,42.359402,19.2519,141,EU,ME
TGK,URRT,Taganrog Yuzhny Airport,47.1983333,38.8491667,117,EU,RU
TGM,LRTM,Transilvania Târgu Mureş International Airport,46.46770096,24.41250038,963,EU,RO
TGP,UNIP,Podkamennaya Tunguska Airport,61.589699,89.994003,213,EU,RU
TGV,LBTG,Bukhovtsi Airfield,43.30659866,26.70089912,666,EU,BG
THF,EDDI,Berlin Tempelhof International Airport,52.473,13.4039,167,EU,DE
THN,ESGT,Trollhättan-Vänersborg Airport,58.31809998,12.34500027,137,EU,SE
THO,BITN,Thorshofn Airport,66.21849823,-15.3355999,65,EU,IS
TIA,LATI,Tirana International Airport Mother Teresa,41.41469955,19.72060013,126,EU,AL
TIV,LYTV,Tivat Airport,42.40470123,18.72330093,20,EU,ME
TKU,EFTU,Turku Airport,60.514099,22.2628,161,EU,FI
TLK,UECT,Talakan Airport,59.876389,111.044444,1329,EU,RU
TLL,EETN,Lennart Meri Tallinn Airport,59.41329956,24.83279991,131,EU,EE
TLN,LFTH,Toulon-Hyères Airport,43.09730148,6.146029949,7,EU,FR
TLS,LFBO,Toulouse-Blagnac Airport,43.629101,1.36382,499,EU,FR
TMP,EFTP,Tampere-Pirkkala Airport,61.414101,23.604401,390,EU,FI
TNF,LFPN,Toussus-le-Noble Airport,48.75189972,2.106189966,538,EU,FR
TOJ,LETO,Torrejón Airport,40.49670029,-3.445869923,2026,EU,ES
TOS,ENTC,Tromsø Airport,69.6832962,18.91889954,31,EU,NO
TPS,LICT,Vincenzo Florio Airport Trapani-Birgi,37.9114,12.488,25,EU,IT
TQR,IT-TQR,San Domino Island Heliport,42.117775,15.490655,,EU,IT
TRD,ENVA,Trondheim Airport Værnes,63.4578018,10.9239998,56,EU,NO
TRE,EGPU,Tiree Airport,56.49919891,-6.869170189,38,EU,GB
TRF,ENTO,"Sandefjord Airport, Torp",59.18669891,10.25860024,286,EU,NO
TRN,LIMF,Turin Airport,45.200802,7.64963,989,EU,IT
TRS,LIPQ,Trieste–Friuli Venezia Giulia Airport,45.827499,13.4722,39,EU,IT
TSF,LIPH,Treviso-Sant'Angelo Airport,45.648399,12.1944,59,EU,IT
TSR,LRTR,Timişoara Traian Vuia Airport,45.80989838,21.33790016,348,EU,RO
TTB,LIET,Tortolì Airport,39.9188,9.68298,23,EU,IT
TUF,LFOT,Tours-Val-de-Loire Airport,47.43220139,0.727605999,357,EU,FR
TXL,EDDT,Berlin-Tegel Airport,52.5597,13.2877,122,EU,DE
TYA,UUWV,Klokovo Airfield,54.239,37.6,499,EU,RU
TYD,UHBW,Tynda Airport,55.284199,124.778999,2001,EU,RU
TYF,ESST,Torsby Airport,60.1576004,12.99129963,393,EU,SE
TZL,LQTZ,Tuzla International Airport,44.45869827,18.72480011,784,EU,BA
TZR,LHTA,Taszár Air Base,46.39310074,17.91749954,531,EU,HU
UCK,UKLC,Lutsk Airport,50.678404,25.487165,774,EU,UA
UCT,UUYH,Ukhta Airport,63.56689835,53.80469894,482,EU,RU
UDJ,UKLU,Uzhhorod International Airport,48.63430023,22.26339912,383,EU,UA
UDN,LIPD,Udine-Campoformido Air Base,46.0322,13.1868,305,EU,IT
UEN,USDU,Urengoy Airport,65.95999908,78.43699646,56,EU,RU
UFA,UWUU,Ufa International Airport,54.55749893,55.87440109,449,EU,RU
UHE,LKKU,Kunovice Airport,49.02939987,17.43969917,581,EU,CZ
UHF,EGUA,RAF Upper Heyford,51.9375,-1.248890042,436,EU,GB
UIP,LFRQ,Quimper-Cornouaille Airport,47.97499847,-4.167789936,297,EU,FR
UKG,UEBT,Ust-Kuyga Airport,70.011002,135.645004,327,EU,RU
UKS,UKFB,Belbek Air Base,44.688999,33.570999,344,EU,UA
ULV,UWLL,Ulyanovsk Baratayevka Airport,54.2682991,48.22669983,463,EU,RU
ULY,UWLW,Ulyanovsk East Airport,54.40100098,48.80270004,252,EU,RU
UME,ESNU,Umeå Airport,63.79180145,20.28280067,24,EU,SE
UMS,UEMU,Ust-Maya Airport,60.35699844,134.4349976,561,EU,RU
UMY,UKHS,Sumy Airport,50.85829926,34.76250076,594,EU,UA
UNT,EGPW,Unst Airport,60.74720001,-0.853850007,,EU,GB
UPV,EGDJ,Upavon Aerodrome,51.28620148,-1.782019973,574,EU,GB
URD,EDQE,Burg Feuerstein Airport,49.79416656,11.13361073,1673,EU,DE
URE,EEKE,Kuressaare Airport,58.22990036,22.5095005,14,EU,EE
URO,LFOP,Rouen Airport,49.38420105,1.174800038,512,EU,FR
URS,UUOK,Kursk East Airport,51.75059891,36.29560089,686,EU,RU
USK,UUYS,Usinsk Airport,66.00469971,57.36719894,262,EU,RU
USR,UEMT,Ust-Nera Airport,64.55000305,143.1150055,1805,EU,RU
UTC,EHSB,Soesterberg Air Base,52.1273,5.27619,66,EU,NL
UTI,EFUT,Utti Airport,60.8964,26.9384,339,EU,FI
UTS,UUYX,Ust-Tsylma Airport,65.43729401,52.20033646,262,EU,RU
UUA,UWKB,Bugulma Airport,54.63999939,52.80170059,991,EU,RU
VAA,EFVA,Vaasa Airport,63.050701,21.762199,19,EU,FI
VAC,EDWU,Varrelbusch Airport,52.908333,8.040556,128,EU,DE
VAF,LFLU,Valence-Chabeuil Airport,44.9216,4.9699,525,EU,FR
VAR,LBWN,Varna Airport,43.232101,27.8251,230,EU,BG
VAW,ENSS,"Vardø Airport, Svartnes",70.35540009,31.04490089,42,EU,NO
VBS,LIPO,Brescia Airport,45.428902,10.3306,355,EU,IT
VBY,ESSV,Visby Airport,57.66279984,18.34620094,164,EU,SE
VCE,LIPZ,Venice Marco Polo Airport,45.505299,12.3519,7,EU,IT
VDB,ENFG,Leirin Airport,61.0155983,9.288060188,2697,EU,NO
VDE,GCHI,Hierro Airport,27.81480026,-17.88710022,103,EU,ES
VDS,ENVD,Vadsø Airport,70.06529999,29.84469986,127,EU,NO
VEY,BIVM,Vestmannaeyjar Airport,63.42430115,-20.27890015,326,EU,IS
VGD,ULWW,Vologda Airport,59.28250122,39.94440079,387,EU,RU
VGO,LEVX,Vigo Airport,42.23180008,-8.62677002,856,EU,ES
VHM,ESNV,Vilhelmina Airport,64.57910156,16.83359909,1140,EU,SE
VHY,LFLV,Vichy-Charmeil Airport,46.16970062,3.403739929,817,EU,FR
VIC,LIPT,Vicenza Airport,45.573399,11.5295,128,EU,IT
VIE,LOWW,Vienna International Airport,48.11029816,16.56970024,600,EU,AT
VIF,VIF,Vieste Airport,41.883317,16.166667,14,EU,IT
VIN,UKWW,Vinnytsia/Gavyryshivka Airport,49.242531,28.613778,961,EU,UA
VIT,LEVT,Vitoria/Foronda Airport,42.88280106,-2.7244699,1682,EU,ES
VIY,LFPV,Villacoublay-Vélizy (BA 107) Air Base,48.7741667,2.1916667,584,EU,FR
VKO,UUWW,Vnukovo International Airport,55.59149933,37.26150131,685,EU,RU
VLC,LEVC,Valencia Airport,39.4893,-0.481625,240,EU,ES
VLK,URRY,Volgodonsk Airport,47.682098,42.0728,276,EU,RU
VLL,LEVD,Valladolid Airport,41.70610046,-4.851940155,2776,EU,ES
VLU,ULOL,Velikiye Luki Airport,56.3810997,30.60810089,328,EU,RU
VLY,EGOV,Anglesey Airport,53.24810028,-4.535339832,37,EU,GB
VNE,LFRV,Vannes-Meucon Airport,47.72330093,-2.71855998,446,EU,FR
VNO,EYVI,Vilnius International Airport,54.634102,25.285801,648,EU,LT
VNT,EVVA,Ventspils International Airport,57.35779953,21.5442009,19,EU,LV
VOD,LKVO,Vodochody Airport,50.216599,14.3958,919,EU,CZ
VOG,URWW,Volgograd International Airport,48.78250122,44.34550095,482,EU,RU
VOL,LGBL,Nea Anchialos Airport,39.21960068,22.79430008,83,EU,GR
VOZ,UUOO,Voronezh International Airport,51.81420135,39.229599,514,EU,RU
VPN,BIVO,Vopnafjörður Airport,65.72059631,-14.85060024,16,EU,IS
VRI,ULDW,Varandey Airport,68.848503,58.201401,39,EU,RU
VRK,EFVR,Varkaus Airport,62.171101,27.868601,286,EU,FI
VRL,LPVR,Vila Real Airport,41.2743,-7.72047,1805,EU,PT
VRN,LIPX,Verona Villafranca Airport,45.395699,10.8885,239,EU,IT
VRY,ENVR,Værøy Heliport,67.654555,12.727257,12,EU,NO
VSE,LPVZ,Aerodromo Goncalves Lobato (Viseu Airport),40.725498,-7.88899,2060,EU,PT
VSG,UKCW,Luhansk International Airport,48.41740036,39.37409973,636,EU,UA
VST,ESOW,Stockholm Västerås Airport,59.58940125,16.63360023,21,EU,SE
VTB,UMII,Vitebsk Vostochny Airport,55.12649918,30.34959984,682,EU,BY
VUS,RU-VUS,Velikiy Ustyug Airport,60.78829956,46.25999832,331,EU,RU
VVK,ESSW,Västervik Airport,57.77999878,16.52359962,,EU,SE
VVO,UHWW,Vladivostok International Airport,43.396256,132.148155,59,EU,RU
VXO,ESMX,Växjö Kronoberg Airport,56.92910004,14.72799969,610,EU,SE
WAT,EIWF,Waterford Airport,52.18719864,-7.086959839,119,EU,IE
WAW,EPWA,Warsaw Chopin Airport,52.16569901,20.96710014,362,EU,PL
WBG,ETNS,Schleswig Air Base,54.459301,9.51633,70,EU,DE
WEM,EGKM,RAF West Malling,51.27,0.4,308,EU,GB
WHS,EGEH,Whalsay Airport,60.37749863,-0.925556004,100,EU,GB
WIC,EGPC,Wick Airport,58.45890045,-3.093060017,126,EU,GB
WID,WID,RAF Wildenrath,51.1141,6.2151,285,EU,DE
WIE,ETOU,Wiesbaden Army Airfield,50.04980087,8.325400352,461,EU,DE
WMI,EPMO,Modlin Airport,52.451099,20.6518,341,EU,PL
WOE,EHWO,Woensdrecht Air Base,51.4491,4.34203,63,EU,NL
WRO,EPWR,Copernicus Wrocław Airport,51.10269928,16.88579941,404,EU,PL
WRT,EGNO,Warton Aerodrome,53.745098,-2.88306,55,EU,GB
WRY,EGEW,Westray Airport,59.35029984,-2.950000048,29,EU,GB
WTN,EGXW,RAF Waddington,53.16619873,-0.523810983,231,EU,GB
WVN,EDWI,Wilhelmshaven-Mariensiel Airport,53.50222015,8.052222252,16,EU,DE
XCR,LFOK,Châlons-Vatry Airport,48.77333333,4.206111111,587,EU,FR
XCZ,LFQV,Charleville-Mézières Airport,49.78390121,4.647079945,492,EU,FR
XDA,LFBY,Dax Seyresse Airport,43.68920135,-1.068889976,106,EU,FR
XFW,EDHI,Hamburg-Finkenwerder Airport,53.53527832,9.83555603,23,EU,DE
XLW,EDWD,Lemwerder Airport,53.144699,8.62444,20,EU,DE
XME,LFQJ,Maubeuge-Élesmes Airport,50.3105011,4.033120155,452,EU,FR
XOG,LFMO,Orange-Caritat (BA 115) Air Base,44.14049911,4.8667202,197,EU,FR
XRY,LEJR,Jerez Airport,36.744598,-6.06011,93,EU,ES
XVS,LFAV,Valenciennes-Denain Airport,50.325802,3.46126,165,EU,FR
YEO,EGDY,RNAS Yeovilton,51.00939941,-2.638819933,75,EU,GB
YLI,EFYL,Ylivieska Airfield,64.054722,24.725278,252,EU,FI
ZAD,LDZD,Zadar Airport,44.108299,15.3467,289,EU,HR
ZAG,LDZA,Zagreb Airport,45.74290085,16.06879997,353,EU,HR
ZAO,LFCC,Aérodrome de Cahors-Lalbenque,44.351398,1.47528,912,EU,FR
ZAZ,LEZG,Zaragoza Air Base,41.66619873,-1.04155004,863,EU,ES
ZBE,LKZA,Zabreh Ostrava Airport,49.92829895,18.07830048,791,EU,CZ
ZBK,ZBK,Žabljak Airport,43.116669,19.233334,4252,EU,ME
ZHI,LSZG,Grenchen Airport,47.181599,7.41719,1411,EU,CH
ZIA,UUBW,Zhukovsky International Airport,55.553299,38.150002,377,EU,RU
ZIN,LSMI,Interlaken Air Base,46.6766014,7.8790798,,EU,CH
ZJI,LSZL,Locarno Airport,46.16080093,8.878609657,650,EU,CH
ZMG,EDBM,"Magdeburg ""City"" Airport",52.073612,11.626389,259,EU,DE
ZQL,EDTD,Donaueschingen-Villingen Airport,47.97333145,8.522221565,2231,EU,DE
ZQW,EDRZ,Zweibrücken Airport,49.2094,7.40056,1132,EU,DE
ZRH,LSZH,Zürich Airport,47.464699,8.54917,1416,EU,CH
ZTH,LGZA,"Zakynthos International Airport ""Dionysios Solomos""",37.7509,20.8843,15,EU,GR
ZTR,UKKV,Zhytomyr Airport,50.270556,28.738611,,EU,UA
